lat,lon,pc_code,pc_location,pc_name,ps_male,ps_female,ps_total
34.50867443000004,69.18066344000002,0101001,Achekzai Street,Ashuqan-O-Arifan High School,3,3,6
33.87580948000005,69.63338020000003,1308138,Kwandi Hassan Khel Village,Venus Khel Mosque,3,0,3
34.45623962700017,70.59428924500008,0605160,Darbang,Darbang School,2,1,3
34.24672994000013,69.99698577000001,0619243,Mama Khel,Mama Khel High School,0,3,3
34.47952462000011,70.92009011000003,0614499,Ali Khel Village,Private House,0,2,2
33.30640805000005,62.14273845000008,3214301,Qandiz,Qandiz Qademi Mosque,4,1,5
36.91065493600006,66.84834686300006,2106177,Shahab Afghania Village,Shamsullah Private House,1,1,2
34.88705194000006,69.68533361000003,0206095,Shokut,Shaheed Hafizullah Secondary School,4,0,4
34.946563160000125,68.54131215100007,0310131,District Bazar Dasht-E-Guzar,District Building,1,1,2
34.27624227000005,63.24147262000009,3212376,Posht-E- Paji,Posht-E- Paji Mosque,3,2,5
34.28907849000007,63.05783067000005,3212377,Sarwan Village,Sarwan School,3,2,5
35.00530741000006,68.86111751000001,0307090,Sar-E-Pul Du Aab,Du Aab Mosque,2,1,3
34.99556325000001,65.70398113000003,2301039,Jandak,Jandak School,3,2,5
34.86126123000001,70.36992997000004,0704076,Parwayee,Parwayee School,2,2,4
34.8866182900001,70.37945197000006,0704080,Mango,Mango School And Tent,2,1,3
34.923274180000064,70.39196032000008,0704081,Kotaly,Kotaly Islamic Madrassa,1,1,2
34.94980635000006,71.22808631,1506063,Shenkorak,Primary School,4,2,6
34.96645553000003,71.27483787000004,1506064,Shegal Washilton,District Compound,3,2,5
35.01560098000009,71.39875741000002,1512054,Byadad,Byadad Primary School,2,2,4
33.787642380000136,64.89160150000002,2305113,Takhta Tarma Village,Takhta Tarma Bazar Tent,2,1,3
33.97186444000007,63.71988353000005,2309178,Khwajaha Village,Tolak School,3,1,4
34.12008072000004,63.63185896000005,2309186,Tagab Ashlan,Tagab Ashlan Secondary School,3,1,4
34.153500510000036,63.519567250000065,2309192,Laraq,Arbab Mir Gul Private House,1,1,2
33.945931449999996,63.797304510000046,2309193,Sang Khalq,Sang Khalq Primary School,2,1,3
32.40451600000003,64.47085691000005,3007196,Nawzad Kalan,Asad Suri High School,6,1,7
32.232402140000005,64.69830950000004,3009184,Sher Ghazai,Noor Mohammad Private House,3,2,5
32.26020614,64.74522454000005,3009185,Kaani Manda,Khan Mohammad Mosque,3,2,5
35.61373847000009,63.310735320000056,3105153,Akaziha,Akazi School,2,1,3
35.52160345000002,63.370382050000046,3105158,Joy-E-Kar,Joy-E- Kar School,2,1,3
35.32536504000007,63.64135239000006,3105168,Mahalla-E- Paheen,Mahalla-E- Paheen  School,3,2,5
35.61215435000008,63.324845360000026,3105188,Sarkhlang Joy-E-Ganj,Sarkhlang Joy-E-Ganj Mosque,2,1,3
32.90659178000003,61.90357121000003,3303055,Kariz Sadiq,Kariz Sadiq Mosque,1,1,2
32.2993253600001,61.297109710000015,3304072,Hassan Abad Ulya,Hassan Abad Ulya Mosque,2,1,3
32.76432537000001,62.578462240000064,3306149,Todanak Village,Todanak Village Tent (Kuchi),1,1,2
32.55547772000003,63.233858680000054,3310177,Mughol Abad,Mughol Abad Mosque,1,1,2
34.95213324999998,69.59841878000003,0205039,Afghania,Qazi Abdul Jamil  School,1,3,4
34.853588320000036,69.6453694300001,0206078,District Compound,Ghazi Usman High School,4,0,4
34.85720486000002,69.39293610000007,0308143,Mula Ahmad Khel,Mula Ahmad Khel School,2,1,3
34.79483419000007,69.46397381000007,0308144,Dandar,Dandar School,1,1,2
34.779720190000006,70.11452913000002,0703093,Alishang,Kotwal Khando Village Mosque,2,1,3
34.99739611000008,70.73665760000004,1513082,Morchal Village,Morchal Village Primary School,3,1,4
34.614080060000084,70.76200808000009,1514083,Bar Noor Gul,Bar Noor Gul Boys High School,1,3,4
36.986239770000104,70.63250517000004,1702054,Gazan,Gazan Mosque,2,1,3
37.05528507999999,70.65470123000006,1702055,Bagh Mubarak,Bagh Mubarak School,2,1,3
33.59241815000012,64.22200661000001,2308232,Seb Talkh,Seb Talkh School,1,1,2
33.90772129000009,67.12117059800003,2407191,Shazan,Mosque,2,1,3
33.83226567200009,67.24597724200002,2407192,Ghajorak,Mosque,2,1,3
33.53988031299998,66.66672259900007,2402172,Rakhan,Mosque,2,1,3
35.75190246700002,68.49832322400005,0902260,Naw Amad Qara Khwal Shakar To,Nawamad Mosque,2,1,3
35.598301780000064,68.73000368800004,0903261,Khwaja Zaid Sufla,Abo Hanifa Madrasa,2,1,3
34.46610113200009,69.24840480100005,0104539,Qalai Hasan Khan Sufla,Qala Hasan Khan Mosque,2,1,3
34.492235239000024,69.31229847,0104540,Hasan Khil Village_Said Jamaludin Second Part,Mehtarlam Baba Mosque,2,1,3
34.90686235300009,70.37706366600011,0704131,Lokar,School,2,1,3
34.75865579000005,70.29734609700007,0704132,Chinchar Pol,Mosque,2,1,3
36.29095801700001,68.73563169800008,0905275,Larkhwabi,Mulah Khal Muhammad Mosque,2,1,3
33.316118869,69.86438495800003,1402177,Dikano Village,Mosque,2,1,3
37.05793335500011,71.17524731700009,1712305,Dargab,Wakil Abdul Jabar School,2,1,3
36.043066468000006,66.23617174800005,2204141,Safar Qeshlaq,Mosque,2,1,3
31.832221330000092,66.37416795600008,2602052,Daro,Haji Abdul Aziz Pump Station,2,1,3
35.72348160700011,65.26090340500006,2908212,Qala Tori,Qala Tardi Female Primary School,2,1,3
34.5090996100001,69.24232755500007,0101520,Behaind Of Cokakola Industary,Hzor Hazrat Nabi Mosque,2,1,3
34.57712942300003,69.16927612200003,0101528,District-15,Muhammad Hanifa Ghazi Mosque,2,1,3
35.14290983800002,69.28544614900005,0305154,Ezatullah Khil_ Gul Bahar,Abdul Hadi Shaheed Secondary School,2,1,3
34.41438309700008,70.56486252700003,0605512,Koza Deh Ghazi,Clinic,2,1,3
34.44125468100004,70.62879268300001,0605513,Dar Gul Sufla,Molawi Ebarahim Kamawi School,2,1,3
35.64012419600001,69.88030223200008,0807108,Chaoni,Chawni School,2,1,3
35.303170359999996,69.42446882700008,0802099,Chamal Warda,Chamal Warda Mosque,2,1,3
36.08992567600002,69.00342452500004,0904265,Khwaja Gul Khor,Khwaja Gul Khar School,2,1,3
34.932332992999996,66.46148699500003,1005178,Kaligan,Kaligan Femal High School,2,1,3
34.271252410000095,62.36383500000002,3202062,Sar Asiab Village,Sar Asiab Scondary School,0,3,3
36.71706323000004,69.25501896000003,1804059,Saqaba,Dahana Bangi School,5,2,7
36.52873468000005,69.36576055000003,1804060,Mirza Bacha,Mawlawi Ezzatullah Shaheed High School,3,2,5
36.91652610000003,69.72089006000006,1810119,Dasht Mirzayee,Koktaba High School,2,1,3
37.168973750000106,69.80510956000003,1810120,Ganda,Ganda Secondary School,2,2,4
36.52187461000002,67.8292491600001,2002022,Dawlat Abad Village,Dawlat Abad Secondary School,2,1,3
36.45507944000008,67.8962214200001,2002023,District Compound,District Office,3,1,4
34.3447002,61.47871013000011,3211456,Markaz-E-Sar Asia,Sar Asia Mosque,1,2,3
34.36984989000009,63.175859740000064,3212365,Markaz-E-Oba Char Mahal,Markaz-E-Oba High School,4,2,6
34.13035484000002,67.0671756070001,1007186,Dara Ghol Sia,Dara Ghol Sia Mosque,2,1,3
37.00831063400008,70.1072349130001,1702287,Now Abad Qala Zafar,Qala Zafar Mosque,2,1,3
33.58458885900003,70.08657150000003,1413185,Sara Pila,Sari Pili School,2,1,3
36.969261750000065,70.33992919600006,1707295,Chapa,Chapa Village Mosque,2,1,3
37.04621947400002,70.12431706000007,1810209,Dasht Amani,Mosque,2,1,3
36.56611180100006,70.94827824900004,1718313,Awrugh,Ogh Female Secondary School,2,1,3
36.96337173000004,68.57958664500005,1907219,Shor Aruq,Secondary School,2,1,3
33.93994420800008,65.71620244500005,2405182,Dahan Abdara,Mosque,2,1,3
34.83627940000002,63.87413595800009,3106198,Kaftar Khan,Kaftar Khan Mosque,2,1,3
32.071870008000126,64.83740134600002,3008226,Nawi Maktab,New School,3,1,4
34.364726459000124,62.16109931100005,3201474,Said Qunad Secondary School,Sayed Qanad Secondary School,2,2,4
34.37338948200011,62.180228710000065,3201475,9Th District,Mawlana Jame,2,2,4
34.527282135000064,69.40983160300003,0101532,Deh Sabz_District_21,Abdul Wahab Mosque,2,1,3
34.607128282000055,69.08197047600002,0101534,Shahrak Tlaie Town,Shahrak Tlaie High School,4,2,6
34.698050200000054,69.06573980500005,0106543,Asad Abad,Mosque,2,1,3
34.796639445999986,69.16411857700008,0110544,Bazari Village,Moqawmat Secondary School,2,1,3
34.571819868000084,69.11076754900007,0101523,Behaind Lwai 16,Yaqob Mosque,2,1,3
34.517598796000044,69.33477342900001,0101524,Arzan Qimat 10Th Block,Ghulam Sedeq High School,2,1,3
34.50585351000013,69.33524156400004,0101525,Arzan Qimat 13Th Block,Sedeq Ullah Risghteen High School,2,1,3
34.87894823900006,69.19982577700004,0114548,Jar Chi,Jar Chi Secondary School,2,1,3
34.83022602500001,69.14901622000006,0114549,Qala Haji,Qala Haji Secondary School,2,1,3
34.73118784900006,69.84414051700001,0115550,Rod Bar,Rod Bar School,2,1,3
34.775884096000034,62.332258871000086,3207479,Jafar Big Khurasani,School,2,1,3
31.948599928000107,61.67071436000003,3309252,Sabz Gazi,Sabz Gazi School,2,1,3
34.089318682000034,70.52406110300005,0613517,Tangi Village,School,2,1,3
34.15915876400006,69.07062687700002,0505083,Waghjan Bazar,Aqeb Bazar Mosque,2,1,3
34.39038983000006,70.41276638100001,0601508,Farm Hada Family,Shahrak Saiaf Mosque,3,1,4
35.40950574000003,69.697688548,0804102,Khenj Center_Shah Chehra,Khatam Alanbia School,2,1,3
35.4685760380001,69.76226505300006,0804103,Zarian Shahr,Muhammad Pana Shaheed School,2,1,3
36.15827433300012,68.83526673300007,0905269,Shotur Ghalt,Primary School,2,1,3
35.196563585999996,67.61692390900004,1003172,Samuch Ha,Samuch Ha Mosque,2,1,3
35.120996074000054,67.47759380600004,1003173,Kado Khana,Kado Khana Mosque,2,1,3
35.09592687200009,66.69439843900008,1005174,Sartosari,Pai Wcha Mosque,2,1,3
34.37008201600005,66.77212139800008,1006181,Dahan Kahdar,Dahan Kohdar Madrasa,2,1,3
34.429049929000044,67.13180622200005,1006182,Do Abi,Do Abi Secondary School,2,1,3
33.836450892000094,69.63939773500005,1308219,Mama Khil Village,Transport Station,2,1,3
34.61375031000018,70.81556626300004,1510122,Chambari,Mosque,2,1,3
37.17376339700009,70.52415714900009,1701283,Laiaba,Laiaba Femal High School,2,1,3
36.99911941900002,70.45896796200002,1702290,Dur Khan,Dehdhi Femal School,2,1,3
37.344768612000095,70.311260469,1704291,Bid Kalan,Bid Kalan High School,2,1,3
37.575958799000006,70.41824856200003,1709299,Tir Garan,Madrasa,2,1,3
36.839787979000086,70.84315705300007,1710300,Kharandab,Kharandab Female School,2,1,3
37.419336228000056,70.25392467800002,1713308,Ghanghar Paian,Ghazanfar Paien Mosque,2,1,3
36.88242634200001,70.21161217700003,1715309,Wahdat Abad,Wahdat Abad Madrasa,2,1,3
36.17268912900009,70.78072736200002,1726316,Lahjor Sho,Lahjor Sho School,2,1,3
35.52390968500003,67.96652637600005,2005100,Choqurak,Sorkh Qala Female School,2,1,3
35.91053305100004,67.33915401700004,2006101,Qaria Taqchi,School,2,1,3
33.97452146900002,66.30513294700009,2404176,Taleej,Mosque,2,1,3
33.89696286100013,66.20487664800005,2404177,Khar Bid Hulia,Mosque,2,1,3
33.425581730000076,65.86892874500005,2406186,Ghola Kisaw,Mosque,2,1,3
33.56157151300004,65.69478884700008,2406187,Korangak,Madrasa,2,1,3
32.171947775999975,66.87052795400004,2601046,"Kagari, Amaki",Kagari Mosque,2,1,3
32.15300389700006,66.985556188,2601047,Miranzaie,Lwar Kariz Mosque,2,1,3
31.955573634000146,67.00487562500004,2603056,Omar Zai,Moque,2,1,3
36.043749479000056,65.36890219700004,2805125,Gardan,Mosque,2,1,3
34.708394647999995,62.87530915600004,3102192,Sang Lawh,Sang Lawh Mosque,2,1,3
33.264825991000095,69.82094426400003,1404180,Pir Padsha Village,Haji Pir Padsh Village Mosque,2,1,3
33.254104547000146,69.78659102400005,1404181,Nik Muhammad Village,Haji Nik Muhammad Village School,2,1,3
34.91792246400005,64.336964134,3106201,Takhlanga,Takhlanga Mosque,2,1,3
34.37382992400003,62.14462135300003,3201471,Jebraiel Mosque,Jebariel Mosque,2,2,4
34.35757176500011,69.61936959800002,0115551,Jarobi,Tahzin Am Jarobe High School,2,1,3
34.63766083500008,69.75989098999999,0115552,Waka Khas,Waka Khas School,2,1,3
35.390254981000076,68.3981603780001,0911279,Klola Sang,Klola Sang Mosque,2,1,3
37.16873588600005,69.43175411000004,1812212,Ai Khanum,Ai Khanum High School,2,1,3
36.20651738000001,69.87946229000002,1813213,Trsht,Secondary School,2,1,3
34.566674924000075,64.70319721400006,2301239,Shakh Malan_Cheshma Sakina,Shakh Malan Mosque,2,1,3
33.522542349000034,63.79622028800003,2310240,Naga,Naga School,2,1,3
35.305476106000114,65.24103391100002,2910215,Diwarak,Mosque,2,1,3
32.614562740000046,63.67324660000004,3310172,Qala-E-Kohna,Qala Kohna Boys Primary School,2,1,3
32.19349240000008,63.558016230000064,3406057,Dangar Abad,Dangar Abad,1,1,2
35.17536233100008,69.2223161540001,0306064,Takhma,Takhma Mosque,2,1,3
33.56243631100009,62.74719338799999,3209480,Dara Bast,Dara Bast Mosque,2,1,3
35.00272357500004,70.07840186800004,0705136,Kasheedor,Mosque,2,1,3
34.7153144150001,63.86321131199999,3104080,Nawa Mullah Gadah,Nawa Mullah Gadah Mosque,1,1,2
34.91635675400011,68.64606711600005,0309142,Lolenj,Ziarat-E-Shah Daleer Lolenj,1,1,2
34.51087009999998,69.17511911000011,0101013,Chendawol,Takya Khana-E-Umomi,3,2,5
34.56950000000008,69.13307222000005,0101244,Qala-E-Najarha,No.16Th Secondary School,4,3,7
34.54277991000006,68.96435500000008,0102417,Orya Khel,Orya Khel Secondary School,2,2,4
34.48005115000004,68.94906596000003,0102418,Chawk Arghandi,Saha-E-Kuchiha,2,1,3
34.352292220000066,69.11714510000007,0103422,Nowniaz,Malik Khani House,2,1,3
34.41689761000002,69.14518153000009,0103423,Bala Qala,Chahar Asyab Boys High School,2,1,3
34.47010521200009,69.20068406200008,0104459,Valayati,Shaheed Mohammad Arif Zarif Secondary School,2,2,4
34.467500000000015,69.31333333000002,0104460,Karez Bakr Village,Kariz Bakr Primary School,2,1,3
34.646100641,69.39454217600006,0105472,Deh Sabz Khas,Deh Sabz-E-Khas Girls High School,1,1,2
34.60836995000015,69.26238547000011,0105474,Qala-E-Zarin,Haji Ahmad Shah Mosque,2,2,4
34.68545039000008,69.03443985000004,0106394,Qala-E-Wazir,Dara-E-Shakar Dara High School,4,3,7
34.66741061000002,69.07541514000005,0106395,Qala-E-Murad Big,Qala-E-Murad Big High School,3,3,6
34.86588865000008,69.18468964000004,0114366,Denar Khel,Abdul Rahman Ba Ba Secondary School,2,2,4
34.843956740000095,69.15720909,0114367,District Capital,Abdul Wakil Shaheed High School,3,2,5
34.56868747000004,69.71990075000006,0115479,Loy Kalai,Yar Del Orya Khel Mosque,2,1,3
34.36484157000005,69.57981103000004,0115480,Loy Kalai,Tezen-E-Khas Primary School,2,1,3
34.57776629000008,69.59578261000006,0115517,Guga Manda,Guga Manda School,1,1,2
34.66239124000005,69.83624382000004,0115518,Sper Kundi,Sperkundi School,1,1,2
34.43259103000002,70.40295759000001,0603084,Du Saraka,Bakhtaan Clinic,0,2,2
34.35657341000007,70.22309465000008,0603085,Fateh Abad,Fateh Abad Clinic,3,0,3
34.08106757000006,66.9258533500001,1007150,Takhta Ha,Takhta Ha Mosque,1,1,2
34.03167321000013,66.97161039000012,1007151,Waaz Darghan,Waaz Darghan Mosque,1,1,2
34.11790565000007,66.9681941800001,1007159,Nas Patan,Toop-E-Ismael Mosque,2,1,3
32.97093490000001,69.07377057000011,1205081,Shah Tori,Big Mosque,2,0,2
32.97138823000007,69.07476653000002,1205082,Shah Tori,Mohammad Hayat Guest House,0,2,2
32.184638050000096,69.00664213000002,1208126,Payandi Village,Mawlavi Serajuddin Madressa,3,1,4
32.44728365,68.85172837000009,1208127,Shekin,Shekin Bazaar Mosque,3,0,3
33.885779689000024,69.67766876000007,1308207,"Moti Village, Sakander Khel",Moti School,1,1,2
33.6666621700001,69.78482170000008,1309170,"Kotkai, Setar Kalai",Kotkai Mosque,3,0,3
33.32614995000005,69.94279470000002,1401003,Omar Village,Omer Village Dermand,4,1,5
33.32765050000007,69.94409176000003,1401004,Shamal Omar Village,Mohammad Vally Shah Hojra,2,2,4
36.63276682200004,68.84997968400009,1902115,Naqil Salarzai,Salarzai Mosque,2,1,3
37.194565480000065,68.89822911000002,1905093,Imam Sahib City,Nomania Secondary School,3,1,4
37.15549619000005,68.90591411000011,1905094,Ota Blaqiha Village,Ortablaqi School,3,1,4
35.50397325000006,67.76274366000004,2005072,Aabkhorak Village,Aabkhorak Madrassa,3,1,4
35.564919980000084,67.81933833000004,2005073,District Compound,Do Aab Madrassa,2,1,3
37.00583957000005,66.08406227000009,2804069,Chaar Changhoo,Chaar Changhoo High School,3,2,5
37.01402769000001,66.13708515000006,2804070,Mangjeek,Mangjeek School,2,2,4
37.5317154700001,65.71695304000005,2806086,Qarnas,Qarnas School,2,1,3
37.49518734999999,65.80223849000004,2806087,Chopli,Chopli Tapa,1,1,2
35.72003963000002,64.15662982000003,2907110,Zori Ha,Zori Ha Primary School,2,1,3
36.41997614000006,64.88473039000007,2909158,Bay Qala Qozi,Qozi Bay Qala Girls High School,3,2,5
36.36500584000004,64.90297028000003,2909159,Kokcha Qala,Jar Qala School,2,2,4
34.27960544000002,62.39698059000005,3202078,Sar Hasan Khwaja Village,Shohada Secondary School,2,0,2
34.22481174000006,62.62732016000004,3206128,Shad Abad Village,Shah Abad School,3,2,5
34.21801420000006,62.59203992000001,3206129,Gul Meer Village,Gul Meer High School,2,1,3
31.62775303000004,61.50522186000003,3309097,Daraq,Daraq Secondary School,2,2,4
36.83144968000007,70.17093583000006,1715163,Khumbak,Khumbak School,1,1,2
36.68886524400005,71.14013012600006,1716098,Teer Garan,Teer Garan Girls High School,1,1,2
37.77451852000009,71.54261771000006,1719221,Chansor Ulya,Chansoor Ulya High School,1,1,2
37.88465500000008,70.22138848000004,1720238,Sang Aab,Sang Aab Mosque,2,1,3
36.85506000000007,71.52269000000004,1723199,Yakhdaro,Yakhdaro School,1,1,2
37.060016270000105,71.42948050000003,1723200,Zeech,Zeech School,1,1,2
36.60264288000008,71.38917280000005,1725193,Zarkhan,Aashor Bek School,1,1,2
36.573047700000025,71.39180120000005,1725194,Dand Village,Dand School,1,1,2
35.98193043000006,70.90075681000006,1726191,Shahran,Shahran Clinic,1,1,2
38.27387180000006,70.92810794000007,1727268,Khurkad,Khurkad Madrassa,3,1,4
37.45304365800005,70.567483963,1708296,Zarnod Bala,Zard Noor Mosque,2,1,3
37.591035181000066,70.301763518,1709298,Afch,Afch Mosque,2,1,3
36.976742996000084,70.46659566600006,1702288,Ali Mango,Ali Mosque,2,1,3
37.14770114200009,70.51604756300004,1702289,Juta,Shahbaz Khan Shaheed High School,2,1,3
37.19559125000011,70.5864958000001,1701004,Sar Qol Yaftal Ulya,Sar Qol School,2,1,3
37.22469428000008,70.51252386000004,1701005,Deh Kalan Yaftal Ulya,Deh Kalan School,2,1,3
37.32750000000005,70.39222222000011,1704034,Speen Village,Speen Girls School,2,1,3
36.8877044200001,70.77768147000003,1705073,Zulm Abad,Sar Lola High School,2,2,4
36.906219810000046,70.74795619000008,1705074,Deh Para,Ghulam Mohammad High School,2,2,4
37.05815086000003,71.10149044000009,1712116,Maidan,Maidan District Office,1,1,2
37.07190610000006,71.13440915000002,1712117,Shakran,Hamedi School,1,1,2
37.489527689999996,70.23823711000003,1713146,Aab Gandah,Aab Gandah Secondary School,1,1,2
37.55791209000004,70.59842609000005,1714234,Aajresh,Aajresh School,2,2,4
37.70048457000004,70.40010979000002,1714235,Salam Deh,Salam Deh Mosque,2,2,4
36.864195600000116,70.20612401000004,1715154,Gandum Qol,Gandum Qol School,3,2,5
36.63140000000003,70.24443000000011,1717168,Karsada Village,Karsada School,1,1,2
36.404510400000035,70.76059961000001,1718258,Gawhar,Gawhar School,2,1,3
36.31685373000009,70.66865335000004,1718259,Larkai,Larkai School,2,2,4
37.9314260300001,70.72012345000005,1721249,Daraaj Payan Village,Daraaj High School,2,1,3
37.93109493000006,70.65064958000002,1721250,Shakhro,Shakhro School,2,1,3
38.38027266000003,71.12020043000004,1722263,Warfad Village,Warfad School,2,1,3
38.286947760000075,70.60760033000007,1724276,Ghamai Payan,Ghamai School,3,1,4
38.39949789999999,70.69329713000005,1724277,Manaaw,Maah Naw,1,2,3
38.18781503000003,70.5726866500001,1724280,Sar Naazem,Sar Naazem School,1,1,2
38.3238939200001,70.72484923000009,1724281,Khan Dara,Khan Dara School,1,1,2
36.99903000000007,72.57826000000006,1728206,Panja,Panja High School,1,1,2
36.96841889000004,72.89725343000008,1728207,Kep Kot,Kep Kot Secondary School,1,1,2
37.12471607200012,70.58541796700005,1701285,Gozar Mahkama,Makhfi High School,2,1,3
37.04915054500001,70.44929495100007,1702286,Ganda Cheshma,Gnda Chasma Secondary High School,2,1,3
36.9707837040001,70.17956089600008,1711303,Pista Khor,Pista Khor School,2,1,3
36.92515974000001,70.25899040200007,1711304,Totak,Hazrat Abas School,2,1,3
37.47613136600002,70.03622454200004,1713306,Aspa Khwa,School,2,1,3
37.350399749000026,70.12440161400005,1713307,Bul Bul Dara!,Bul Bul Dara Mowque,2,1,3
36.876234370000034,71.05802928700004,1716311,Qalat,Sar Qalat Mosque,2,1,3
36.52332899500014,70.83799258300006,1718314,Ta Lolich,Primary School,2,1,3
37.21953300400006,71.43939852400008,1723315,Qaz Deh,Gharan Bala High School,2,1,3
36.672022290000086,69.64891581000008,1801002,Khatayan,Khatayan High School,4,2,6
36.7101346600001,69.61404820000007,1801003,Alfarooq,Alfarooq School,5,2,7
36.79604680000009,69.66980060000006,1801005,Khwaja Khalil,Khwaja Khalil School,3,1,4
36.73917365000009,69.53944421000008,1801006,D03 - Nahia 3,Sayed Abdullah Boys High School,5,2,7
36.73622772000002,69.53416046000008,1801010,D03 - Nahia 3,Doctar Sayed Hussain High School,5,2,7
36.73069365000005,69.54919050000002,1801011,D01 - Nahia 1,Abu Usman Boys High School,6,3,9
36.74086425000012,69.36391220000007,1801021,Shuhada Qalbaras,Gul Nazar High School,4,2,6
36.72563101000001,69.42963423000006,1801022,Aaq Masjid,Aaq Masjid High School,5,3,8
36.74308910000004,69.59076978000007,1801032,Ganj Ali Beg,Ganj Ali Beg High School,2,2,4
36.78475052000001,69.62556305000003,1801033,Ochqadaq,Ochqadaq,2,1,3
36.90286679000006,69.68538256000004,1802038,Khwaja Lamtoo,Khwaja Lamtoo Mosque,1,1,2
36.98979419000005,69.61232873000004,1802039,Qala Mama Ye,Qala Mama Ye School,1,1,2
36.66492815000011,69.34189590000005,1804062,Afaqi,Etihad High School,5,3,8
36.58588341000005,69.3587132000001,1804063,Chala Tash,Mansoor Shaheed High School,2,2,4
31.426069541000075,65.92692635800006,2703086,Haji Aziz Village,Tbc Clinic,2,1,3
31.44977518000013,65.32078235000009,2704175,Talgan,Talgaan Camp,1,1,2
31.466646300000136,65.25783581000006,2704176,Moshan,Shar Ali Camp,1,1,2
31.542880460000028,65.45488092000008,2704180,Panjwayee Markaz,Shamsuddin Kakar School,4,0,4
31.67175419000001,65.39819452000005,2705155,Zharee Dasht,6Th Camp School,1,1,2
31.627375450000027,65.49932066000005,2705156,Zharee Dasht,5Th Camp School,1,1,2
30.9660853200001,66.43391831000007,2711205,Nawee Village,Doctar Mohammad Dawood Private House,5,1,6
30.985033040000058,66.41453319000004,2711227,Bilal Abad,Haji Kamaluddin Private House,4,2,6
29.787754590000052,65.64584103000006,2716196,Sher Shah,Sher Shah School,4,3,7
29.58181044000005,65.07035892,2716197,Kaami,Kaami School,4,2,6
31.58133525000007,65.65040373000006,2717064,D06 - Nahia 6,Zakir Sharif School,4,2,6
31.393521920000087,65.83668826200008,2718237,Mirano Village,Peer Mohammad Private House,4,4,8
31.47717761100009,65.71242614700006,2718238,Tajo Khan Village,Camp School,4,4,8
36.53147198000001,65.79635831000006,2801025,D01 - Nahia 1,Afghan Tapa High School,4,2,6
36.73310635000012,65.83629619000001,2801026,D04 - Nahia 4,Chaharshanba Secondary School,3,2,5
36.662113090000055,65.70772241000003,2801027,D02 - Nahia 2,Lab Jar Khurasan Secondary School,2,1,3
36.68167903500011,65.75197500400002,2801028,D04 - Nahia 4,Chobash Kalan Secondary School,2,1,3
36.601774720000094,65.75134211000007,2801031,D03 - Nahia 3,Shakarak Secondary School,2,1,3
36.615393630000014,65.76944668000004,2801032,D03 - Nahia 3,Hassan Tabeen High School,2,1,3
36.882806960000046,66.10100832000008,2803118,Bakawal Turkmania,Bakawal Turkmania Mosque,1,1,2
36.842418310000006,66.10836769000008,2803119,Aleek Rabat,Aleek Rabat Secondary School,2,1,3
36.169017080000025,65.46201696000003,2805090,Qosh Taba,Choqma Chaqoor School,2,2,4
36.30457647000006,65.48422199000002,2805091,Qosh Taba,Jarqadoq School,3,1,4
36.19268868000003,65.45593935000005,2805094,Qosh Taba,Taraghali School,1,1,2
36.91258154000006,66.18312440000003,2807038,D01 - Nahia 1,Aaqcha Girls High School,2,2,4
36.90654590000005,66.18906133000011,2807039,D01 - Nahia 1,Abu Bakr Sediq Mosque,2,2,4
36.92369511000003,66.49247092000007,2808052,Bala Mardiyan Village,Bala Mardiyan Boys High School,2,1,3
36.82281417000007,66.38579856000008,2808053,Noor Abad Village,Noor Abad Secondary School,1,1,2
36.89846106000011,66.26745896000007,2809063,Hindukush,Hindukush Primary School,2,1,3
37.02487299000009,66.35597865000004,2809064,Farok Qala,Farok Qala Secondary School,1,1,2
36.8609694600001,66.31164861000008,2809068,Saltaq Village,Saltaq School,1,1,2
37.41319326000004,66.03388355000004,2810080,Makhdoom Qali Faraghi,Makhdoom Qali Faraghi High School,6,3,9
37.404451020000046,66.06893117000007,2810081,Joy Sarai,Joy Sarai Secondary School,3,1,4
37.34553028300006,66.19282114400005,2810082,Shahab Village,Kok Secondary School,1,1,2
35.978070550000034,65.38575476000004,2811096,District Compound,Darzaab Boys High School,3,1,4
35.97869227000002,65.39607937000007,2811097,Mafal,Abu Zar Ghaffari School,2,1,3
36.02757456000009,65.48009886000004,2811102,Tash Jawaz Village,Tash Jawaz School,2,1,3
35.98806003000006,65.30285258000004,2811103,Badamlek Darzab,Badam Lek,1,1,2
36.64339751000002,65.76628845000002,2801011,D03 - Nahia 3,Kok Gunbad Girls High School,4,2,6
36.65605427,65.77724422000006,2801012,D01 - Nahia 1,Arab Khana High School,5,3,8
36.65051478000006,65.7987049200001,2801020,D01 - Nahia 1,Aalti Khwaja High School,4,2,6
36.559762640000045,65.81236926000011,2801021,D01 - Nahia 1,Qara Kent Boys High School,3,2,5
36.75863461000009,65.63238222000007,2802112,Chob Bash,Chob Bash High School,2,1,3
36.869482016000056,66.16999784000008,2803120,Khanqah Uzbekya,Khanqah Uzbekya Girls High School,2,1,3
37.0625124600001,66.06001537000002,2804072,Safar Wali Awal,Safar Wali Awal School,2,1,3
37.037366910000024,65.96813097000003,2804075,Qowenli Muhajir,Qowenli Muhajir School,1,1,2
36.91876332000007,66.05047808000005,2804076,Sultan Areegh,Sultan Areegh School,2,1,3
37.073026920000075,65.94580420000005,2804079,Masjid Qara-E-Adeek,Qara-E-Adeek Mosque,1,1,2
36.062622230000045,65.37244852000003,2805088,Qosh Taba,Sher Bek School,4,2,6
36.886340690000075,66.22116927000009,2807042,Laghmani Village,Laghmani Mosque,2,1,3
36.84677491000004,66.24548547000003,2807043,Yandagh Areegh,Yandagh Areegh Mosque,1,1,2
36.65930437000006,65.77474110000003,2801004,D01 - Nahia 1,General Abdul Rashid Dostam High School,5,3,8
36.683008680000036,65.75745230000005,2801005,D04 - Nahia 4,Zokoor Yaka Bagh Boys High School,4,3,7
36.91780844000011,66.15835072000007,2807044,Yangee Areegh,Yangee Areegh Turkmania Boys High School,3,2,5
36.888418520000116,66.15488049000001,2807045,Besh Kapa Surkh,Besh Kapa Surkh School,3,1,4
36.82390554000009,66.45631585000008,2808049,Sanseez Village,Shaheed Latifa Habibi Girls High School,2,2,4
36.78778300000009,66.46061417000001,2808054,Shisha Khana Arabia Village,Shisha Khana Boys High School,2,1,3
36.84811135000009,66.52927959000006,2808055,Memleek Village,Memleek Secondary School,1,1,2
36.80236166000009,66.56480530000002,2808056,Koshgak Village,Koshgak Girls High School,1,1,2
36.7733845300001,66.50101108000007,2808057,Garjak Village,Garjak Boys Secondary School,2,1,3
36.861407320000104,66.41299969000006,2808059,Nasrat Abad Village,Nasrat Abad Secondary School,1,1,2
36.94693523000015,66.26003749000004,2809061,Jangal Areegh Village,Jangal Areegh Secondary School,3,2,5
37.01092540000007,66.23539951000005,2809066,Cheleek Ganj Village,Cheleek Ganj Secondary School,1,1,2
36.09054113000005,65.52144420000005,2811106,Aqsaay,Aqsaay School,1,1,2
35.97938993600013,65.37578251500008,2811107,Darzaab,Turkman Qadoq School,1,1,2
36.855724596000094,66.45993630200009,2808126,Chahar Bagh,Char Bagh High School,2,1,3
35.99161955300007,65.19731175500007,2811127,Peer Ghaib,Secondary School,2,1,3
35.94856963000013,64.73979583000008,2901008,D09 - Nahia 9,Sar Balaq School,3,2,5
35.915229570000065,64.77917882000007,2901009,D03 - Nahia 3,Abu Muslim Khurasani Madrassa,5,0,5
35.925296730000106,64.77063459000009,2901014,D03 - Nahia 3,Maimana Agriculture Vocational High School,5,0,5
35.90736653000001,64.80351784000007,2901015,D06 - Nahia 6,Deh Sayedan Girls High School,3,2,5
36.03524103000009,64.66497137000006,2902018,Khwaja Namosi,Khwaja Namosi Boys School,3,0,3
36.84483707000005,69.84615913000002,1807094,Nawan,Mir Hassan Nawan Secondary School,3,2,5
36.86402580000002,69.97050021000004,1807095,Char Toot,Hazrat Khalid High School,3,1,4
36.77408800000011,69.94498200000002,1807097,Markaz Shahr,Kalafgaan Girls High School,4,1,5
36.73146449000012,69.85475268000003,1807098,Aaq Balaq,Abu Ubaida High School,2,2,4
36.46439723000008,69.8649824500001,1808084,Khasdah,Chaman Khasdah,3,2,5
36.57470223000003,69.93062410000009,1808085,Aardeshan,Qaneyat Shaheed High School,2,2,4
36.36854362000002,69.92886236000005,1808087,Lazhdah,Lazhdah High School,2,1,3
36.34733375000006,70.05710539000002,1808088,Mushtan,Mushtan School,2,1,3
36.62571112000003,69.81275315000005,1808090,Koraani,Makhdoom Abdullah Shaheed School,1,1,2
36.58058602000009,69.76858488000003,1808091,Nahr Aab,Nahr Aab Madrassa,2,1,3
37.24533400000006,69.83752346000004,1810108,Sayed Abad,Faiz Abad Primary School,3,1,4
37.32317215000007,69.72115887000002,1810109,Kewan,Hazrat Abdullah Bin Masood High School,3,1,4
37.054851900000074,69.64643781000008,1810111,Yamchi,Yamchi Primary School,3,1,4
37.10650301000007,69.90581502000005,1810112,Sar Rostaq,Hazrat Khelali High School,4,2,6
37.185149970000154,69.90656391000005,1810114,Hazar Smooch,Hazar Smooch Secondary School,3,2,5
37.169705790000066,69.97333588000004,1810115,Sar Ghaar,Sar Ghaar Secondary School,2,1,3
37.268475060000064,69.83943842000006,1810122,Keshan,Tawheed Islami School,1,1,2
37.14133788000006,69.65880156000004,1810123,Qadaq Tajikan,Qadaq Tajikan Mosque,3,1,4
36.50850986000017,69.21551380000002,1811071,Qashlaq Say,Qashlaq Say Mosque,1,1,2
36.43768124000011,69.22077728000004,1811072,Boyerak,Boyerak Mosque,1,1,2
36.31576563000005,69.39138335000011,1811074,Dara-E-Kalan,Dara-E-Kalan Primary School,2,1,3
36.438517850000046,69.37841835000003,1811075,Fakhrak,Qandahari Fakhrak Mosque,2,1,3
37.1691992400001,69.51241520000009,1812174,Nawabad,Nawabad Secondary School,2,2,4
37.246285860000114,69.50500256000001,1812175,Laayeqa,Laayeqa Primary School,2,1,3
37.44495999,69.89111965000008,1816136,Arg Shah,Arg Shah Secondary School,2,2,4
37.595833330000026,69.86777777000003,1816137,Samti,Samti Secondary School,2,2,4
37.53500000000007,69.74333333000004,1816139,Hody,Hody Secondary School,2,2,4
37.37011315000012,69.87341488000001,1816140,Warankhwah,Warankhwah Secondary School,2,2,4
36.74578604000008,69.51922923000006,1801186,Baghak Village,Baghak Primary School,2,1,3
36.86518186000011,69.56290379000009,1802035,Hazar Smooch,Hazar Smooch Secondary School,3,1,4
36.897043378000134,69.58961401800008,1802187,Shololok,Bibi Khadija Secondary School,1,1,2
36.79328397000007,69.43275911000003,1803040,Chayla,Chapla Primary Schoo,4,3,7
36.836764470000055,69.37710413000009,1803043,Haji Pahlawan,Haji Pahlawan High School,2,2,4
36.82136528000007,69.41319307000005,1803044,Markaz Shahr,Alhaj Abdul Qayum Bek High School,3,3,6
36.51483296000015,69.62256086000005,1805078,Sang Lashem,Sang Lashem School,2,2,4
36.45645827,69.45188572000004,1805079,Samandab,Samandab High School,2,2,4
37.06625846000006,69.42329665000004,1809046,Khwaja Ghaar,Khwaja Ghaar Girls High School,3,2,5
37.068115320000025,69.42011062000009,1809047,Khwaja Ghaar,Boys High School,4,2,6
37.10143914000003,69.33071659000008,1809052,Meng Chaqoor,Subhani High School,2,2,4
36.97923402000008,69.38261003999999,1809053,Qala Cha Kaarez,Ghulam Sakhi High School,3,1,4
37.140503370000005,69.79670117000003,1810104,Shahr Jadid Rostaq,Rostaq Girls High School,4,2,6
37.20462566000001,69.76497298000001,1810105,Tolakai,Tolkai Wa Chapa Khana Secondary School,3,2,5
37.04651602000012,69.8415574200001,1810130,Chabdara Wabtash,Chabdara Wabtash Secondary School,2,2,4
37.27690596000013,69.67880504000003,1810131,Qara Deng,Qara Deng Primary School,1,1,2
36.362899950000084,69.54076480000006,1811066,Sheera,Dahan Sheera High School,2,2,4
36.35347514000006,69.26420673000007,1811067,Tarsak,Tarsak Primary School,2,2,4
37.154410000000055,69.44858,1812169,Shahr Jadid,Shahr Boys High School,4,2,6
37.1504083300001,69.43646944000005,1812170,Shahr Kuhna,Girls High School,2,2,4
36.203050000000054,70.0049500000001,1813178,Khanqah,Sayed Zafaruddin Shaheed High School,4,2,6
36.19749619000002,70.07396004,1813179,Sar Yawaar,Insaf Shaheed High School,2,2,4
35.986784330000035,70.03027765000007,1813202,Sarweghnan,Sarweghnan Mosque,1,1,2
36.231127840000106,70.1458320500001,1813203,Iskowan,Iskowan Mosque,1,1,2
37.36608580000007,69.56883895000006,1814159,Lala Guzar,Lala Guzar School,2,1,3
37.30768965000005,69.51162732000006,1814160,Shortoghai,Shortoghai Mosque,2,1,3
37.420880000000075,69.42913,1815162,Qara Tapa,Qara Tapa Boys High School,2,1,3
37.48043093000005,69.51085935000005,1815163,Qaghni,Qaghni Boys High School,2,1,3
37.50453055000005,69.52294722000003,1815168,Kol Toot,Kol Toot Mosque,2,1,3
37.39656296000008,69.80574714000005,1816132,Markaz Shahr,Eidgah Madrassa,4,2,6
37.405805210000025,69.89178471000007,1816143,Gazan,Gazan Primary School,1,1,2
37.39449795000003,70.05272822000003,1816144,Rabaat Hameeduddin,Rabaat Hameeduddin Mosque,1,1,2
37.41006555000014,69.60491809000008,1817146,Kaftar Ali,Kaftar Ali Secondary School,4,3,7
37.44670159000003,69.59790143000001,1817147,Irmajar,Irmajar Mosque,2,2,4
37.40977759,69.73773650000004,1817152,Mughlan,Mughlan Secondary School,1,1,2
37.50643774000007,69.68014154000011,1817153,Jarbashi,Jarbashi School,2,1,3
36.74108165000005,69.53683753000008,1801007,D03 - Nahia 3,Bibi Hajera Girls High School,3,2,5
36.76362520000007,69.48043536000006,1801008,Parchaw Village,Qari Sediq High School,3,1,4
36.727230269000046,69.56781150500007,1801018,D01 - Nahia 1,Malaria Clinic,5,2,7
36.706207029999995,69.55875756000007,1801019,Nahr Chaman,Fayaz Shaheed High School,3,3,6
36.66595739000007,69.63641772000008,1801027,Joy Shekh,Joy Shekh School,1,1,2
36.72665417000018,69.30362858000012,1801028,Chenza Yee,Chenza Yee School,2,2,4
36.79743769000007,69.49737326000007,1801029,Tarma Baay,Tarma Baay School,2,1,3
36.76146277000003,69.53443773000005,1801030,Qazaq,Abdul Rahman Taloqani High School,2,1,3
36.576813541000085,69.703216239,1806082,Sad Bargan,Sad Bargan School,2,1,3
36.75056528000009,69.94651683000005,1807100,Zardaalo Dara Sufla,Mohammad Hussain Shaheed High School,3,1,4
37.13681900000009,69.41659914000009,1809054,Jalom Khor,Haji Mirza Mohammad Secondary School,2,1,3
36.92565137000007,69.38411449000007,1809055,Hamwar Say,Hamwar Say Primary School,2,2,4
37.00993179000008,69.36678506000003,1809190,Keshwari,Hasamuddin Shaheed High School,3,1,4
37.14129302000006,69.79703370000001,1810101,Shahr Jadid Rostaq,Hazrat Omar Farooq High School,5,2,7
36.96552569000007,69.77382980000004,1810116,Qadaq Jawaz Khana,Qadaq Jawaz Khana Clinic,3,1,4
36.93446413000007,69.79212202000006,1810117,Chenar Village,Chenar Village Mosque,1,1,2
36.95981788000006,69.97054678000006,1810126,Shingar Aab,Abu Huraira Secondary School,1,1,2
37.082919090000125,69.94942945000008,1810127,Ghenj,Mawlawi Abdul Qudoos Shaheed Secondary School,3,1,4
36.93380409400004,69.94573030800005,1810197,Aabzan,Aabzan Secondary School,1,1,2
37.24508000000001,69.47595999000005,1812201,Arabkakul,Arabkakul Secondary School,1,1,2
37.3382790800001,69.53992667000007,1814155,Markaz Shahr,Khwaja Bahauddin Boys High School,3,1,4
37.336878510000034,69.53044711000007,1814156,Afghania,Imam Abu Hanifa High School,2,1,3
37.03891863200009,69.93879551900005,1810210,Khwaja Khirab,Secondary School,2,1,3
37.02541873700003,69.76529381500005,1810211,Dashtak Sufla,Primary School,2,1,3
36.705893070000066,68.87882600000003,1901003,D05 - Nahia 5,Ghazi Khan High School,7,3,10
36.72259749000009,68.87379756000006,1901004,D01 - Nahia 1,Fatima Zahra High School,3,3,6
36.72398589000004,68.88428099000006,1901006,D04 - Nahia 4,Khwaja Mashhad High School,4,1,5
36.72394432000002,68.86837624000006,1901007,D02 - Nahia 2,Sher Khan High School,6,2,8
36.73174960000012,68.96579177000011,1901028,Qochi Kalan,Qochi Kalan School,5,3,8
36.659540730000096,68.98337469000008,1901029,Malraghi,Malraghi Girls High School,3,1,4
36.67753118000006,68.94404440000005,1901038,Kata Khel,Kata Khel Secondary School,3,1,4
36.74977559000007,68.98758546000009,1901048,Choqor Qishlaq Village,Choqor Qishlaq School,2,2,4
36.69805555000005,68.88341666000014,1901049,D05 - Nahia 5,Medyoteek Markaz,2,1,3
36.69200327000011,68.7968554000001,1902114,Chardara Markaz,Jamiyat High School,3,2,5
36.780702830000024,68.68682829000007,1902122,Ainul Majar,Ainul Majar High School,2,2,4
36.78242777000007,68.64747777000008,1902125,Juma Bazar,Juma Bazar Mosque,2,1,3
36.43905954900008,69.04503958100008,1903139,Zangi Say Village,Zangi Say School,2,2,4
36.57610300000002,68.90443500000002,1903140,Pul Kheshti Village,Pul Kheshti High School,2,2,4
36.57698835000007,68.8566453000001,1903209,Mir Shekh Village,Mir Shekh Secondary School,1,1,2
36.48289588000007,68.91986750000005,1903217,Cheep Village,Cheep Secondary School,2,2,4
36.4875019800001,69.11793826000007,1904150,Chonai Village,Chonai Secondary School,1,1,2
36.66545241000003,69.10770113000012,1904151,Chahar Toot Oryakhel,Chahar Toot High School,1,1,2
36.70512121000004,69.1351320900001,1904160,Band-E-Barq,Kuhna Qala Secondary School,1,1,2
36.69563011999998,69.05851833000011,1904161,Jangal Bashi,Jangal Bashi Boys High School,1,1,2
37.18603908000003,68.90350455000001,1905073,D03 - Nahia 3,Naswan Markazi High School,2,3,5
37.20008673000005,68.97864311000004,1905074,Alef Berdy Village,Alef Berdy School,5,2,7
37.19376564000006,68.76687552000006,1905200,Murad Shaikh,Murad Shaikh Secondary School,3,1,4
37.13017502000003,69.04223763000006,1905201,Qarya Chaghar,Juma Khowani Payeen Mosque,2,1,3
37.033935870000015,69.24043135000005,1906178,Markaz Archi,Jamhoriat High School,4,2,6
37.0506848300001,69.26574020000004,1906179,Tajik Qashlaq Village,Qashqari Secondary School,3,1,4
36.91752539000005,69.27934477000007,1906189,Qara Ghoshi Uzbekya Village,Jaame Mosque,3,2,5
36.87805555000001,69.21916666000003,1906190,Gul Balaq,Gul Balaq Secondary School,4,1,5
37.01114514000008,68.52304527000008,1907109,Qoq Masjid,Etihaad High School,3,1,4
37.03714247000009,68.39715131000005,1907110,Halqa Kol,Halqa Kol School,2,1,3
36.94777300000006,68.13277300000001,1907112,Baghicha,Baghicha Secondary School,1,1,2
36.92346851000008,68.5488743700001,1907113,Zulm Abad,Zulm Aabad School,1,1,2
36.712889460000056,68.86304798000003,1901010,D02 - Nahia 2,Hazrat Ali High School,5,2,7
36.722695860000094,68.8684601300001,1901011,D02 - Nahia 2,Law Department,5,2,7
36.73787678999997,68.86636625000008,1901014,D03 - Nahia 3,Bibi Ayesha Sediqa High School,3,5,8
36.722496380000095,68.87099521000002,1901015,D01 - Nahia 1,Municipality Office,3,2,5
36.74705784000006,68.86723702000005,1901020,D03 - Nahia 3,Kuhan Duzh High School,4,2,6
36.70317013000008,68.84858644000009,1901021,D03 - Nahia 3,Zakhil Khamdan,4,1,5
36.65584098500006,68.89264649100006,1901043,Qaraq Village,Qazaq Mosque,2,2,4
36.730833330000046,68.91916666,1901044,Khazani Village,Khazani Secondary School,2,2,4
36.35913867000005,66.91380067000004,2107262,Zowarha Village,Zowarha Mosque,2,1,3
36.67925041000003,66.80741523000007,2108213,Chamtaal Village,Chamtal School,2,1,3
36.64524892000005,66.87568592000005,2108214,Sar Asyab Village,Sar Asyab School,2,1,3
36.68968118000011,66.67807820000006,2108221,Qala-E-Raziq Village,Qala-E-Raziq School,2,1,3
36.71874996000003,66.64654328000007,2108222,Alizai Village,Nawshahr Alizai Mosque,1,1,2
36.98804151000004,66.82169871000006,2109118,Dawlat Abad Center,Dawlat Abad Municipality Building,3,1,4
36.98692556000005,66.82017521000004,2109119,Dawlat Abad Center,Rabia Balkhi School,1,1,2
36.972838380000084,67.00618278000005,2109122,Qara Ghajla Village,Maulana Wayezi Boys High School,2,0,2
36.980970940000034,67.00316007000005,2109123,Qara Ghajla Village,Wazyezi Girls High School,1,1,2
36.96941651000008,66.73193726000007,2109125,Sadr Abad Village,Sadr Abad School,1,1,2
36.995451350000074,66.55224390000004,2109126,Delbar Jeen Village,Delbar Jeen School,2,1,3
36.909548750000006,66.76367780000001,2109129,Khowala Bachgan Village,Khowala Bachgan School,1,1,2
37.000311250000095,66.75654304000003,2109130,Hayatan Village,Hayatan School,1,1,2
36.95979943000004,66.81653969000007,2109144,Yakhdan Village,Yakhdan Mosque,1,1,2
36.95715655000001,66.84463998000005,2109145,Pay Mashhad Afghania,Afghania Mosque,1,1,2
36.71468987000001,67.68674702000003,2110083,Ameen Hussain Village,Shahee Ahmad Shah Masood High School,2,1,3
36.7325935400001,67.7739742200001,2110084,Ghazi Abad Village,Ghazi Abad Secondary School,1,1,2
36.785062810000056,67.68883433000009,2110094,Deh Warda Village,Deh Warda Village Mosque,1,1,2
36.586318290000065,68.06496280000007,2110096,Khoshtoot Village,Khoshtoot Secondary School,1,1,2
36.75411400000008,66.74931222000005,2111195,Zhangora Watani,Sikandar Khel Zhangora School,1,1,2
37.29857827000003,66.47382707000008,2112114,Islam Ulya Village,Islam Ulya School,2,1,3
37.34843839000007,66.97226293000004,2112115,Joy Wakeel Village,Joy Wakil Clinic,2,1,3
35.77390840100015,66.95925584300004,2114295,Wakheshk Village,Qara Bay School,1,1,2
35.966654029999994,66.88340723000003,2114296,Qara Bay Village,Qara Bay Mosque,2,1,3
35.81957717000009,66.64924657000003,2115306,Bakhtgaan Village,Bakhtgaan Mosque,1,1,2
35.798649020000035,66.65655685000004,2115307,Bazar Kuhna Hamrukh Village,Bazar Kuhna Mosque,2,1,3
35.97729811000006,66.71239788900002,2115308,Naw Abad Baloch Village,Mir Hashim School,1,1,2
35.737647126000056,66.66474426200003,2115309,Murghzar Village,Imam Hassan School,2,1,3
35.86633564000004,66.79616272000005,2115317,Folad Village,Hazar Paimana Mosque,1,1,2
35.71117501000003,66.73298269,2115318,Baam Shakh Village,Khatimul Anbiya High School,1,2,3
36.682961090000056,67.09460180999999,2101023,D05 - Nahia 5,Sayed Ismail Balkhi School,4,3,7
36.67879383000008,67.08301316000008,2101024,D05 - Nahia 5,Nasaji,3,2,5
36.69122549000005,67.12259213000003,2101029,D07 - Nahia 7 Karta-E-Khurasan,Khurasan Girls School,4,4,8
36.71593479000009,67.13865026000006,2101030,D07 - Nahia 7 Karta-E-Sulh,Ustad Jaahed School,1,2,3
36.7192049180001,67.15691283200005,2101041,D10 - Nahia 10 Guzar Ali Chopan,Shaheed Abdul Ali Mazari Number 2 School,4,4,8
36.71042604000008,67.12696153000006,2101042,D06 - Nahia 6 Gas Institute,Neft O Gas Institute,3,3,6
36.66783093000004,66.93153895000003,2103052,Kod Wa Barq Familiha,Bibi Zainab School,4,3,7
36.70424663000006,66.95107762000005,2103053,Kaka Kot Village,Kaka Kot School,2,1,3
36.66577060000008,67.00513582000008,2103056,Pul Baboo Village,Ghulam Mohammad Shaheed School,3,1,4
36.65728069000004,66.96611752000005,2103057,Pusht Bagh,Saleh Mohammad School,2,2,4
36.66921338000006,66.98563354000002,2103062,Shekh Abad Village,Shaikh Abad School,2,2,4
36.41572155000006,67.18882246000001,2104274,Shar Shar Village,Shar Shar Sufla School,2,1,3
36.73866946000008,66.89287681000008,2106149,Rabat Village,Amir Mohammad Tokhi School,2,1,3
36.751155680000025,66.89829580000003,2106151,District Compound,Sehat Aama Clinic,2,1,3
36.83316550000008,66.9401859600001,2106162,Colombo Village,Colombo School,1,1,2
36.90615655000005,66.91052784000001,2106163,Dewali Maidan Village,Dewali Maidan School,2,1,3
36.82595595000003,66.78835042000007,2106173,Arghandab Village,Arghandab Mosque,1,1,2
36.68761570000002,66.8798696900001,2106174,Oof Maleek Village,Oof Maleek School,2,1,3
36.38632024000003,66.88584901000009,2107244,Qor Baqa Khana Village,Bibi Amena School,2,1,3
36.39942851000003,66.88643168000004,2107245,Agha Jan Village,Agha Jan School,1,1,2
36.36404936000004,66.88052238000007,2107250,Baba Ewaz Village,Ahmad Alkhadroya School,2,2,4
36.3490340500001,66.88051663000009,2107251,Sar Asyab Village,Bibi Maryam School,2,1,3
36.41312523000006,66.9329974,2107256,Qaland Khalili Village,Qaland Khalili School,2,1,3
36.31602631000001,66.91434837,2107257,Ai Latan Village,Ai Latan School,2,1,3
36.39270831000005,66.88757994000011,2107273,Qor Baqa Khana,Lal Mohammad Private House,1,1,2
36.641426920000065,66.90842625000009,2108211,Mir Qasim Jan Village,Mir Qasim Jan School,2,1,3
36.5962784400001,66.94397298000005,2108232,Rabat Village,Rabat School,1,1,2
36.726900380000075,66.57765352000004,2108233,Nawshahr Alizai Village,Nawshahr Alizai Mosque,2,1,3
37.02582625000007,66.77331454000003,2109133,Tali Gag Village,Tali Gag School,2,1,3
36.96468585000012,66.87380091000004,2109134,Hashim Abad Watani Village,Hashim Abad Mosque,1,1,2
37.028715160000104,66.94331175000012,2109139,Zadiyan Village,Zadiyan School,1,1,2
36.94535127000006,66.82543890000004,2109140,Bay Mashhad Village,Bay Mashhad School,1,1,2
36.704373750000066,67.72777560000003,2110079,Sarhang,Khwaja Burhan Girls School,1,2,3
36.71153203000009,67.68690377000007,2110080,Khanqah Mirza Khairuddin,Amin Hussain Girls School,1,2,3
36.75380946000011,66.67056431000003,2111180,Aaq Tapa,Abu Shakoor Balkhi School,1,1,2
36.89589412000002,66.62354126000005,2111181,Ahmad Abad Village,Ahmad Abad School,2,1,3
36.82546374000005,66.68034754000007,2111184,Arnagha Village,Arnagha School,2,1,3
36.89436801000002,66.70254091000004,2111185,Aadina Mosque Village,Adeena Mosque,1,1,2
36.92522358000012,66.56485238000006,2111190,Borolok Village,Borolok School,1,1,2
36.77254882000002,66.59436644000003,2111191,Taimorak Village,Badaye Bakhli School,1,1,2
36.767444250000075,66.70557881000005,2111201,Chahar Bolak District Office,Districts Building,1,1,2
36.877820870000036,66.59314553000009,2111202,Mangoli Village,Mangoli School,1,1,2
36.842490540000036,66.74350500000001,2111206,Shekh Tash Taimor Village,Jame Mosque,1,1,2
36.785730440000066,66.7491289100001,2111207,Mula Shaheen Village,Mula Shaheen Private House,1,1,2
37.17481985000002,67.32541634000003,2112109,Jirtan Village,Jirtan School,2,1,3
37.202179150000084,67.21001137000012,2112110,Hazara Toqi Village,Tashguzar School,2,1,3
37.23345408000017,67.50549350000003,2113101,Tazlaq Village,Tazlaq Secondary School,2,1,3
37.185031660000064,67.74368254000005,2113102,Taza Areekh Village,Haji Wali Private House,1,1,2
37.19529916000008,67.72003870000006,2113105,Boz Areekh Village,Bozareekh Secondary School,1,1,2
37.19878578000009,67.67817135000008,2113106,Qaraja Village,Kareem Qaryadar Private House,1,1,2
36.079689560000034,66.90077498000011,2114290,Kushenda Bala Village,Kushenda Bala School,2,1,3
36.153084570000026,66.92153775000004,2114291,Kushenda Payan Village,Kushenda Payan School,2,1,3
35.8317105000001,66.73298013000002,2115313,Banigo Village,Abdaalgan Secondary School,3,1,4
36.14920994000009,66.02834130000005,2201027,Qashqari Village,Qashqari Village School,2,2,4
36.032481430000026,66.03938706999999,2201034,Se Toot Village,Se Toot Village Mosque,1,1,2
36.103341540000066,65.9059525100001,2202051,Tarbalaq,Tarbalaq Secondary School,1,1,2
36.09698870000008,65.70580020000004,2202052,Dara-E-Band Village,Dara-E-Band Mosque Property,2,2,4
35.992685180000024,65.79474113000002,2202057,Mirza Walang,Mirza Walang Secondary School,1,2,3
35.91189592000002,65.88383982000002,2203062,Nagala,Nagala Mosque,1,1,2
35.83589729000008,65.89634291000007,2203063,Sar Deh,Sar Deh Mosque,2,2,4
35.86624099000013,66.33688544000006,2205103,Sabz Village,Sabz Village Mosque,2,2,4
35.896896100000085,66.35143747000008,2205104,Topkhana Village,Topkhana Village Mosque,2,1,3
35.859395900000045,66.44255611000004,2205113,Charoo Ulya,Charoo Mosque,1,1,2
35.93637667000007,66.45884443000006,2205119,Farshaqan Miyana,Farshqan Miyana Mosque,1,1,2
36.05550148000013,66.40973050000008,2205120,Larak Afghania,Rostam Qaryadar Mosque,1,1,2
35.86972977000011,66.48618482000002,2206129,Shah Mard Village,Shah Mard Village Madrassa,2,1,3
35.91086629000005,66.52368167000003,2206130,Karan Village,Karan Village Madrassa,2,2,4
36.00027945000005,66.53189742000005,2206134,Alghan Afghania,Alghan Afghania Mosque,2,2,4
35.308917340000086,66.40347416000002,2207097,Zawj,Zawj Madrassa,2,2,4
35.670017570000034,66.60898963000005,2207098,Shekh Mang,Bajgah Madrassa,3,1,4
35.66846562000011,66.56947356000005,2207100,Pitab,Pitab Secondar School,2,2,4
34.521150610000106,65.25869389000007,2301001,Taht Shahr,Sultan Alauddin Ghori High School,6,4,10
36.22578867000005,65.93437488000009,2201003,Rahmat Abad Village,Rahmat Abad High School,6,3,9
36.2148994800001,65.94930370000007,2201004,Imam Khord Village,Imam Yahya High School,5,3,8
35.76667834000012,65.77179256000008,2203065,Deh Surkh Village,Himat Deh Surkh O Pas Nai High School,2,1,3
36.02450553000005,66.23491332000006,2204036,Gorkaab Ulya,Gorkaab Ulya Mosque,2,1,3
36.004713070000015,66.22241207000008,2204037,Tanzeel,Tanzeel Mosque,1,1,2
35.884552940000155,66.14349231000004,2204041,Khanqah,Khanqah Girls Secondary School,3,1,4
35.95484356000001,66.51863414000009,2206136,Yoltarab Village,Yoltarab Girls Secondary School,2,1,3
35.65852671000004,66.91759075000002,2207087,Tagab Takht,Tagab Takht Madrassa,3,1,4
35.4636563,66.79544838000004,2207090,Doshakh,Doshakh School,3,2,5
35.577249839999986,66.71674994000006,2207091,Jorazi,Tolo Jorazi High School,2,2,4
35.45935187000013,66.4414069800001,2207094,Pay Ziarat,Pay Ziarat Mosque,3,2,5
35.41564898000003,66.33172895000006,2207095,Peghola,Peghola Madrassa,2,2,4
35.546213014000074,65.56933646400005,2203139,Nimak,Mosque,2,1,3
35.87547277200003,66.12436281800007,2204140,Malek Uzbakia Village,School,2,1,3
36.03984847900005,66.37393182400005,2205142,Khwaja Sorkh,Khwaja Surkh School,2,1,3
36.09106785300006,66.66637339400006,2206143,Chaghdan,Mosque,2,1,3
36.281507170000026,65.87225272000003,2201008,Korak Uzbekya Village,Korak Uzbekya Secondary School,3,2,5
36.17798779000009,66.07767318000005,2201009,Baghawi Uzbekya Village,Baghawi Uzbekya Secondary School,4,2,6
36.342979239999984,65.89139495000006,2201010,Qosh Tapa Village,Qosh Tapa High School,5,1,6
36.23309756000004,66.17719715000004,2201020,Qadam Jay Village,Qadam Jay Madrassa,2,1,3
36.140238220000136,65.8322488800001,2202048,Mula Sakhidad,Mula Sakhidad Girls High School,4,2,6
36.18022533000013,65.85870416000009,2202049,Angushka,Angushka Secondary School,2,1,3
36.03979420999999,65.64685523000003,2202053,Qara Khowal Village,Qara Khowal Mosque Property,2,2,4
36.009506960000124,65.54751382000009,2202054,Shah Toot Village,Shah Toot Village Madrassa,2,1,3
35.54631387000008,65.56829456000014,2203069,Qala-E-Shahr Madrassa,Qala-E-Shahr Madrassa,1,1,2
35.52415506000003,65.55233503000004,2203070,Naw Qala Shahr,Haji Mula Qurban Mosque,2,1,3
35.28273861000007,66.19626033000002,2203082,Safid Maidan Shina,Azadi High School,2,1,3
35.133665930000085,66.23395703000007,2203083,Dahna Kashan,Shaheed Mazari High School,1,1,2
36.111048870000005,66.28385007,2204043,Sabzi Kalan,Sabzi Kalan Mosque,1,1,2
36.06989894000009,66.29019732000005,2204047,Bagh Ishaaq Village,Bagh Ishaaq Village Mosque,1,1,2
35.96487932000011,66.36867878000004,2205106,Khulkhana Tafaikhor Village,Irfan Secondary School,2,2,4
35.95968159000011,66.4421585100001,2205111,Farshaqan Kalan Village,Chinar Mosque,2,2,4
36.010723210000016,66.39752112000004,2205116,Archatoo,Archatoo Primary School,2,2,4
35.73040866000009,66.36859865000012,2205121,Pushta Kabood Aab Village,Kabood Aab Mosque,1,1,2
36.06651494000004,66.57553751000005,2206124,Shekyar Village,Shekyar Village Mosque,1,1,2
35.76823040000009,66.56350641000003,2206132,Aabdara Village,Aabdara Village Mosque,1,1,2
34.328744650000104,65.40862607000007,2301005,Kanjak,Zartali School,4,2,6
34.20576110000003,65.40259383000007,2301006,Qebi Dahna Shor Qol,Bazaar Qibi,4,1,5
34.45342651000004,65.12075970000008,2301008,Tagha-E-Taimur,Tagha-E-Taimur School,4,1,5
34.60099389000006,65.29291044000009,2301009,Sar Pul Kasi,Kaasi Ulya School,4,2,6
34.64503323000008,64.92134177000007,2301017,Lashara Sufla,Abdul Ahmad Open Space,3,2,5
34.87356121000007,65.3035311500001,2301018,Kashkak,That Ghelmeen High School,4,2,6
35.039997850000056,65.85197676000007,2301023,Aab Reem,Abdul Haq Open Space,2,2,4
34.28206278000003,65.55135784000007,2301024,Pahlo Sang,Nadir Khan Pahlo Sang Qala,3,1,4
34.564244490000085,65.36159133000005,2301028,Qots Sufla,Qots Sufla Secondary School,2,2,4
34.87349369000004,65.24894707000004,2301029,Darband,Sadmen Ghelmeen Primary School,3,2,5
34.883626320000126,65.44099928000001,2301045,Ghaar Siyagak,Tameer Hassan,3,2,5
34.60454620000014,64.81949201000003,2301235,Bara Khana,Maidan Bara Khana,2,2,4
33.88372044000009,64.90466557000005,2302100,Chashma Safid,Mohammad Yaqoob Private House,1,1,2
34.272611550000114,64.88174259000004,2302101,Gala Asyaab,Gala Asyaab Bazar,1,2,3
34.40745570000008,64.80037387000006,2302108,Salmeen,Salmeen School,1,2,3
34.55552929000015,65.78680996000001,2303046,Markaz Dawlat Yar,Dawlatyar School,3,1,4
34.63458067000005,65.91717699000004,2303047,Joy Nashr,Poshta Noor School,2,2,4
34.52478221000011,65.66050378000007,2303049,Shiniya,Shiniya Mosque,2,1,3
34.582217540000116,65.71660360000006,2303050,Sharshar,Khairullah Mosque,2,1,3
34.666767840000084,65.83823426000002,2303052,Samak Village,Bazar Samak Tent,1,1,2
34.43509059000003,65.86803751000008,2303053,Narm Tih,Narm Tih Mosque,1,1,2
34.44121008999998,65.67075304000006,2303057,Loka Mazar,Loka Mazar Mosque,2,1,3
34.66988765000012,65.73594199000009,2303058,Awlad Qadam,Jira School,1,2,3
35.141038380000076,64.95196839000002,2304059,Malmanj,Mohammad Ibrahim Private House,2,2,4
35.03095756000007,65.07222610000008,2304060,Khafak,Khafak Mosque,3,1,4
35.03931853000002,65.18763308000005,2304063,Deh Haji,Deh Haji School,2,1,3
35.17707778000002,65.13152620000005,2304064,Gawhar Qala,Qala Gawhar High School,3,1,4
35.17950237999998,64.89881573000005,2304071,Kandakh,Bagh Habibullah,2,1,3
33.57960026000006,65.06349230000004,2305111,Bazar Sangan,Sangan School,2,1,3
33.70155416000009,65.10444131000006,2305114,Kalagi Village,Bazar Kalagi Tent,2,2,4
33.692164230000124,64.84872700000004,2305118,Shinkot Village,Kuhna Shenkot Bazar Tent,1,1,2
31.56609036000011,61.669087743000034,3309099,Dewalak Ha,Dewalak Ha Secondary School,1,1,2
31.58175551000004,61.492527100000046,3309100,Dombalai Ulya,Dombalai Ulya Primary School,2,1,3
31.533746940000107,61.46770330000004,3309103,Qoch,Qoch Secondary School,1,1,2
31.780287050000002,61.62042119000008,3309104,Char Gawak,Char Gawak Ulya Mosque,1,1,2
32.36831305000006,62.07623693000001,3301034,Bagh-E-Pul,Girls High School,4,1,5
32.35572093000014,62.10462594000008,3301035,Qala-E-Mohammad,Qala-E-Mohammad Mosque,3,1,4
32.49169223000008,62.13953171000004,3302042,Chin Farsi,Khwaja Abdullah Bedar High School,1,1,2
32.51396093000008,62.126681900000065,3302043,Dokeen Village,Dokeen Primary School,2,1,3
32.44085307000009,62.06173023000011,3302234,Shahr-E-Kohna,Shahr-E-Kohna Mosque,1,1,2
32.16375788000003,61.74648794000009,3305240,Hawzak Mohammad Aslam,Hawzak-E- Mohammad Aslam School,1,1,2
32.62086967000006,62.422337780000056,3306127,Grani,Grani Primary School,2,1,3
33.786550580000025,64.88146510000007,2305119,Norak Markaz,Norak Primary School,1,1,2
34.29115912000001,64.39221649000008,2306089,Yaka Sang Village,Yak Sang School,1,1,2
34.46017858000002,64.54532989000006,2306090,Pala Surkhak,Bedan School,1,1,2
34.459791000000095,66.04347148000005,2307137,Dahan Bareeki Village,Qazal School,3,1,4
34.45425827000014,65.94952516000005,2307138,Sare Nodah Village,Garm Aab Sufla School,2,2,4
34.555389710000036,66.12465571000008,2307153,Diwkan Village,Bekh Sang School,3,1,4
34.4204041400001,66.35861918000006,2307154,Asad Abad Village,Sare Diwalak School,1,1,2
34.5848482800001,66.04356804000008,2307158,Sang Zard,Sang Zard School,1,1,2
34.48657423000007,66.34146456000006,2307159,Qala-E-Shakarki,Qala Shakraki Mosque,1,1,2
34.730059800000085,66.20610910000008,2307172,Sang Polak Village,Ghighanak School,1,1,2
34.572208600000096,66.21421912000008,2307173,Shinya Haigal,Shinya Haigal Mosque,1,1,2
34.51962011000012,66.01518937000004,2307177,Sar Sokhta Village,Sar Sokhta Mosque,1,1,2
33.52450558000007,64.41814755000006,2308209,Pas Qala,Pas Qala High School,3,1,4
33.58988278000009,64.26253579000003,2308211,Aashoqan,Aashoqan School,2,1,3
33.579480620000034,64.15545811000001,2308212,Larqa,Abdullah Larqa Private House,1,2,3
34.179688520000056,63.55742742000004,2309187,Dayee Village,Dayee Secondary School,2,1,3
34.67500197000001,65.00104257000002,2301012,Shora Bazar,Lal Mohammad Private House,4,2,6
34.52073045000006,65.48809266000008,2301013,Badgah,Badgah Girls High School,4,1,5
34.71326514000002,64.81748049000005,2301034,Sanmay Rakhna Safid,Sanmay Rakhna Safid Mosque,1,2,3
34.554583929999986,64.65098401000002,2301035,Ghulaman,Ghulaman School,4,1,5
35.175167600000066,65.05918863000002,2304069,Maseen,Maseen Mosque,2,1,3
34.268018240000096,64.11548882000002,2306083,Nasfanji,Nasfanj Primary School,1,1,2
34.36665361000005,66.16168708,2307143,Peshband Bala Village,Joqal School,2,1,3
34.41086544000015,66.23578037000001,2307144,Qolani Village,Qolani School,1,1,2
34.51949802000009,66.34112402000007,2307147,Rashk Village,Rashk Mosque,1,1,2
34.46095482000009,66.52105273000004,2307148,Siyasang Village,Sray Karman School,2,1,3
33.243312590000045,64.41245297000003,2308215,Darz Aab,Nili School,3,2,5
33.619824570000006,64.47290160000004,2308216,Khum Paay Hisar,Khum Paay Hisar School,1,1,2
33.46522637,64.2319310500001,2308223,Yageen,Sayed Alauddin Private House,2,1,3
33.179060120000045,64.33476514000007,2308227,Zarni,Zarni Secondary School,1,2,3
35.21605995200012,64.76959319800004,2301031,Hawz Saaleh,Hawz Saaleh,2,2,4
34.444350772000035,64.85965224500004,2302104,Khwaja Gan,Fazal Ahmad Bagh,2,2,4
34.39352751000003,64.69357218000003,2302105,Razqan,Arbab Sakhi Private House,1,2,3
34.00716375000007,64.85495172000006,2302110,Chehl Gazai,Sar Chehl Gazai Mosque,2,1,3
35.19185170000004,64.87965093000008,2304066,Pas Archa,Najibullah Private House,2,1,3
33.70256215000007,65.19422547000003,2305129,Bazar Dahan Pushta Roq,Dahna Dewalak School,1,2,3
34.15309857000008,64.0709277700001,2306078,Dahn Hisar,Dahn Hisar School,1,2,3
34.384387520000075,64.34763666000003,2306079,Kamanj,Girls School,1,1,2
34.50559690000002,64.09427826000004,2306086,Barzo,Barzo Primary School,2,1,3
34.35146229000004,64.26494728000004,2306087,Margha,Margha Primary School,1,1,2
34.39251319000005,65.99943691000004,2307140,Qala-E-Sang Shanda Village,Sang Shanda School,1,2,3
34.57898409000007,65.93202890000002,2307156,Dahan Laka Sang Village,Dahn Laka Sang Mosque,1,1,2
34.66455870000009,66.02642683000006,2307161,Kata Chashma Village,Kata Chashma School,2,1,3
34.57021543000009,66.59280065000009,2307168,Safid Aab Shinya,Safid Aab Shinya Mosque,1,1,2
34.61036941000009,66.55703029000006,2307169,Tagab Sayeed,Tagab Sayeed Mosque,2,1,3
34.4690309200001,66.46968251000003,2307175,Talto Village,Talto Karman School,1,1,2
33.99119319000002,63.900408670000026,2309181,Dahan Guldan,Dahan Guldan Mosque,1,1,2
33.97656562000009,63.72614578999999,2309182,Kabotar Khan,Kabotar Khan Primary School,2,2,4
33.54298048000003,63.468302619999996,2310199,Dila,Dila Bagh,1,2,3
33.853533123000076,63.97233778600006,2310200,Dahan Dotayee,Dahn Dotayee School,1,1,2
33.673544580000076,63.898833580000016,2310201,Manak Sufla,Manak Sufla Secondary School,2,1,3
33.6425503800001,63.59701470000003,2310204,Akheri,Akheri Secondary School,2,2,4
33.789799220000134,63.98685635000007,2310205,Zer Tangi,Zer Tangi Mosque,1,1,2
33.743880190000034,66.32841832000011,2402015,Shiniya Haidar Beg,Shiniya Mosque,2,2,4
33.67066782000001,66.60552723000004,2402016,Palich,Palich Mosque,1,1,2
33.64992188000011,66.26024213000007,2402024,Shalij,Shalij Mosque,3,2,5
33.60942849000002,66.58585862000004,2402025,Ashkar Abad,Ashkar Abad Mosque,1,1,2
33.5432478700001,66.61681736000004,2402035,Asho Ghokala,Asho Gholaka Mosque,2,1,3
33.67146809000006,66.08165481000002,2403109,Wageer,Sahib Zaman Wageer Mosque,1,1,2
33.47077910000007,66.12831695000008,2403110,Chalzai,Chalzai Bazar School,1,1,2
33.365898480000105,66.01680647000008,2403114,Sohoor Tagabdar,Sohoor Tagabdar Mosque,3,2,5
33.983320470000066,66.37603146000002,2404036,Siyah Nawar Abdi,Siyah Nawar Abdi Mosque,2,2,4
34.0296470700001,66.50461421000007,2404037,Pirestan,Safid Sang Mosque,2,1,3
34.28944760100003,66.52327004400009,2404042,Gum Aab,Gum Aab Mosque,1,1,2
33.95999533000003,66.29132915000007,2404043,Loran Khushk,Loran Khushk Mosque,2,1,3
36.07774103000002,64.58240788000008,2902019,Khwaja Namosi,"Meng Darakht, Khwaja Namosi",1,1,2
33.92720075000007,65.91978829000004,2405088,Khadeer Sufla,Khadeer Sufla Mosque,1,2,3
33.823638920000064,65.70597798000007,2405089,Shakar Dara,Shakar Dara Mosque,1,2,3
33.802231380000045,65.66240424000004,2405091,Dastani,Dastani School,1,2,3
33.75145633000001,65.68336159000006,2405092,Bazi Village,Bazi Village Mosque,1,2,3
33.729693300000086,66.79247481000009,2407146,Askan,Askan Mosque,2,2,4
33.8877444,66.87116770000006,2407147,Surkh Joy,Surkh Joy Mosque,2,2,4
33.85166170000008,67.14600031,2407154,Pitap Joy,Watana Boys High School,1,1,2
33.876427140000054,67.29941134000009,2407155,Shinya Nek,Shinya Nek Mosque,1,1,2
33.775859480000065,67.05414139000005,2407157,Shinya Barkar,Shinya Barkar School,2,1,3
33.70275132000008,66.95718975000003,2407158,Ashto,Shina Ashto Mosque,1,1,2
33.971744619999996,66.60367713000005,2407166,Gargai,Gargai Village Mosque,1,1,2
33.85756736000005,67.05045427000003,2407167,Do Jahan,Do Jahan Tikan Barkar Mosque,1,1,2
34.20791121999999,66.18045370000006,2408074,Shinya Qaramat,Shinya Qaramat School,2,1,3
34.11891857000004,66.07943836000001,2408075,Shekh Ali,Qala-E-Sangi Mosque,2,1,3
34.03836363000011,65.62905408000009,2408079,Siyah Chob,Siyah Chob Bazar Mosque,2,2,4
34.10876096000001,65.71669634000007,2408080,Shinya Les,Shinya Les Mosque,1,1,2
33.23277331000008,65.46505128000008,2409059,Laghar Joy,Laghar Joy School,1,1,2
33.229245690000035,65.69176758000002,2409060,Baghban,Baghban Mosque,1,1,2
33.236983590000115,65.59533175000006,2409070,Sulaiman Abad,Sulaiman Abad Mosque,1,1,2
33.32862255000005,65.72167609000003,2409168,Haftad Nafar,Haftad Nafar Mosque,1,1,2
33.84077196000007,66.02443966000006,2401003,Shish,Shish School,2,2,4
33.88662690000012,66.1611260700001,2401004,Pishok,Bazar Pishok Mosque,2,2,4
33.69695559000009,66.17854221000007,2401012,Pai Nili,Pai Nili Mosque,3,2,5
33.66862450000012,66.43822593,2402013,"Waras, Surkh Keji",Waras School,3,2,5
33.69570692000012,66.54928033000002,2402019,Olqan,Olqan Mosque,2,2,4
33.88861670000003,66.39620431000006,2402020,Tagab Largar,Tagab Largar Mosque,1,1,2
33.7379533700001,66.63039011000006,2402030,Tagag,Tagag High School,1,1,2
33.80847717000002,66.61570275000005,2402031,Faiz Abad,Faiz Abad Mosque,1,1,2
34.25157577000008,66.30810555000002,2404046,Jangan Kalan,Qalandaran Mosque,1,1,2
34.218238350000085,66.34967862000006,2404047,Jangan Khord,Elsafi Mosque,1,2,3
34.184622900000036,66.28569855000006,2404052,Chaka Jankan,Chaka Jankan Mosque,1,1,2
34.03260385000007,66.27536504000003,2404053,Surkh Joy,Surkh Joy Mosque,1,2,3
33.904249220000025,65.76879382000003,2405095,Gham Qol,Dahan Gham Qol School,1,2,3
33.88531186000004,66.05138915,2405096,Pitabak,Pitabak Korga School,1,2,3
33.782089800000115,65.87878633000007,2405100,Takht Kiyan,Takht Kiyan Mosque,2,1,3
33.99894940000002,65.78637090000004,2405101,Shalgham,Qorb Ali School,2,1,3
33.64543306000008,65.78115505000005,2406126,Kuhna Deh,Kuhna Deh Madrassa,2,1,3
33.6364296300001,65.7052117000001,2406127,Karwan Sarai,Karwan Sarai Mosque,2,1,3
33.41126712000002,65.7702395000001,2406139,Shoro Kiso,Shoro Kiso Mosque,2,1,3
33.534486140000084,65.73272946000006,2406140,Monami,Monami Mosque,2,1,3
33.67396683000005,66.91081256000011,2407161,Nadak,Tai Jang Mosque,1,1,2
33.94866866000006,66.76181876000004,2407162,Siyah Bomak,Siyah Bomak Rabat Mosque,1,1,2
33.88388162000006,66.50023127100003,2402173,Safid Pushta Largar,Mosque,2,1,3
33.80666497600001,66.709412969,2402174,Ghaf,Mosque,2,1,3
33.84534501200014,66.26525945100006,2402175,Ghaibi,School,2,1,3
33.86588124400003,65.84084555200005,2405183,Rang Darakht,School,2,1,3
33.42890570000001,65.83802197700001,2406184,Sar Bagh Kisaw,Mosque,2,1,3
33.48217230200006,65.69132907000007,2406185,Tajreeb,Mosque,2,1,3
33.48991363,65.76030580000007,2406143,Hoshi,Hoshi Mosque,2,1,3
33.836128900000055,66.92274098000007,2407144,Teyorsal,Orlak Mosque,1,3,4
33.57957573000003,65.73190240000004,2406129,Shina Kiti,Shina Kiti Mosque,2,1,3
33.688920010000025,65.61881881400005,2405180,Chaghan,School,2,1,3
33.89159234900003,65.90807257700004,2405181,Kharbid Sar Qul,Mosque,2,1,3
33.696423240000044,66.14335153000007,2401007,Sang Moom,Sang Moom Mosque,2,3,5
33.758972980000074,66.15224204,2401008,Dasht,Dasht Mosque,5,3,8
33.38038757000008,66.26317942000001,2403117,Chonai Village,Chonai Bazar Mosque,1,1,2
33.91461772000007,65.94492796000003,2405085,Khadeer Ulya,Shiniya Khadeer Ulya Mosque,1,2,3
34.03569733000009,65.91929767000003,2405086,Dahn Say Pasi Band,Dahn Say Pasi Band School,1,1,2
33.657783790000074,66.85698672000004,2407163,"Toqman Dara, Mir Ghulam",Zaspa Tuqman Dara Mosque,1,1,2
33.791137950000035,67.01443308000009,2407164,"Dahan Shahrak, Tai Barkar",Tai Barkar Mosque,1,1,2
34.263879949999996,66.13526031,2408071,Dahan Qarghan Payeen,Jafaria Bazar Sang Takht Mosque,3,2,5
34.282260660000084,66.07140697000004,2408072,Shinya Chaka,Shinya Chaka Mosque,3,1,4
34.27275753999999,65.87733785000005,2408076,Siyah Kharak,Bazar Siyah Kharak School,2,1,3
34.18860929000006,65.81678949000013,2408077,Salbito,Bazar Salbito School,2,2,4
33.20630388000011,65.46905046000003,2409054,Balaagh,Balaagh Mosque,2,2,4
33.20917796000002,65.5249620700001,2409055,Sof,Boka Sof Mosque,1,2,3
33.639235010000036,65.75762185000008,2406134,Shalizar,Shalizar Mosque,2,1,3
33.43086617000012,65.8044562100001,2406135,Dasht Kiso,Dasht Kiso Mosque,2,1,3
33.421319960000055,65.84716315000003,2406137,Ghotla,Ghotla Mosque,2,1,3
32.776587574000054,65.91649556800009,2501050,Sajawal,Sajawal School,3,3,6
32.62509329000003,65.45593432000005,2502040,Dehrawood Bazar,Girls High School,0,5,5
32.73065928000011,65.47487980000002,2502042,Chatoo,Chatoo School,5,1,6
32.8613568700001,66.04271683000003,2503017,District Womens Clinic,Dinarkhel Girls School,1,3,4
32.84693670800006,66.050539928,2503018,Qalacha Bazar,Qala-E-Ragh School,3,1,4
32.92031703900006,66.01377999400009,2503020,Qala-E-Ragh,Awiyan School,2,2,4
32.73883897000005,66.2817701600001,2506046,Chinarto,Womens Clinic,0,5,5
32.618092790000034,65.82220318000005,2501006,Talani Village,Talani Secondary School,4,3,7
32.58730555000008,65.95700000000004,2501007,Garm Aab,Garm Aab School,3,2,5
32.68611167000006,65.88300930000011,2501011,Pirosha,Pirosha Madrassa Mosque,3,2,5
32.73398382000008,65.90733000000007,2501012,Surkh Marghab Village,Shah Hussain High School,3,3,6
32.93994500000005,65.56402900000003,2504030,Chahar Chino Bazar,Chahar Chino Bazar High School,6,0,6
32.94304256,65.56377844000008,2504031,Chahar Chino Bazar,Chahar Chino Bazar Women'S Clinic,0,5,5
32.10349824000004,66.91388327000007,2601002,Hawashnasi,Shekh Mati High School,6,2,8
32.10699395000004,66.91609981000005,2601003,Nawai Resala,Kandak School,3,2,5
32.19259439000005,67.01802085000006,2601008,Spina Ghbarga,Spina Ghbarga Madrassa,5,2,7
32.08240050000011,66.87705355,2601009,Kharwaryan Village,Haji Allah Dad Mosque,3,2,5
31.89322648000004,66.52278270000008,2602029,Foladgai,Ghaishi Rabat School,5,0,5
32.05792463000004,66.72946306000003,2602030,Kheshaki Village,Haji Khadi Khan Private House,5,0,5
31.970939479999984,67.0379149,2603033,Syori,Syori (Shenkai) District Office,5,5,10
32.51981393000012,67.41391912000003,2606010,Shah Joy,Baba Hotak High School,7,1,8
32.47751681000014,67.37641110000001,2606014,Karbaghi,Karbaghi School,4,1,5
32.51477421000017,67.53694734000005,2606015,Jafar Mosque,Sherzai Haji Abdullah Khan Mosque,3,1,4
32.11466272000012,66.91530493000005,2601005,Sinak,Sinak High School,3,2,5
32.100748750000044,66.89370716000005,2601006,Nawai Village,Chonai School,4,2,6
32.005360249999995,67.48300040000001,2609042,Lorgai,Omomi School,2,1,3
32.20409758000002,67.6387580200001,2609043,District Compound,District Clinic,2,1,3
31.56277777,67.61611111000006,2610038,Dagar Jangai,Jangi Borj Mosque,1,1,2
32.01677998000014,67.74406898000004,2610039,Seenzai,Seenzai School,2,1,3
32.11021552300011,66.9144632900001,2601050,Rsala,Resala Female School,2,1,3
31.90691321500005,66.57337253900005,2602051,Muhammad Zai Village,Muhammad Jan Village Mosque,2,1,3
32.02688268500007,67.11187559900002,2603053,Badin,Ziarat Madrasa,3,1,4
31.784369095000038,67.39519573500006,2608073,Toragha Village,Madrasa,2,1,3
32.57564228700004,67.48123478800004,2606070,"Shor Bar, Qaiom Village",Qaiom Village School,2,1,3
31.799469170000023,66.32468242000002,2602026,District Compound,Boys School,6,0,6
31.80171793000001,66.32492155000006,2602027,District Compound,Girls School,0,4,4
31.6224471100001,65.7026817700001,2701005,D06 - Nahia 6,Mir Bazar School,6,0,6
31.63939867000011,65.7229955500001,2701006,D10 - Nahia 10,Qawmi Secondary School,4,3,7
31.621283000000133,65.73046173000007,2701040,D04 - Nahia 4,Mirwais Neeka High School,10,2,12
31.640595970000028,65.70153099000001,2701042,D09 - Nahia 9,Shaheed Azeemullah School,6,4,10
31.73987620000008,65.70043481000006,2702102,Sheen Awliya,Sheen Awliya School,3,0,3
31.71188923000001,65.65458503000006,2702103,Doraahi,Jala Oar School,3,0,3
31.687342800000113,65.60953264000005,2702107,Manara,Manara School,2,1,3
31.649072620000016,65.58540293000006,2702108,Nagahan,Khushal Khan School,1,2,3
31.474121050000015,65.97099320000005,2703074,Nawe Ada,Sayed Mohammad Kor,3,0,3
31.57293600000003,66.04034782000006,2703075,Madzi,Haji Sultan Mohammad Aka Private House,3,0,3
31.543061350000112,65.45551939000008,2704185,Tbc,Girls School,2,2,4
31.55029324000009,65.46399049000004,2704186,Chehl Ghor,Chehl Ghor School,4,0,4
31.439220590000033,65.31551355000003,2704189,Talgan Village,Talgaan Village School,2,2,4
31.456342050000032,65.27060519000013,2704190,Moshan,Bazar Madrassa,2,0,2
31.670575050000053,65.36432778000007,2705149,Zharee Dasht Village,Awal Camp Tent,2,2,4
31.597741570000014,65.50963058000006,2705150,Aashoqa,Aashoqa School,2,1,3
31.53098485000015,65.39318419000004,2705160,Sablaghi,Amanullah School,2,0,2
31.622134090000003,65.52713516000004,2705161,Senzari,Haji Lala Oil Station,2,1,3
31.903858950000124,65.49351383000003,2707121,Aroq Shah Khan,Haji Qayoom Guest House,1,1,2
32.078410710000085,65.17564375000005,2709130,Pir Khadim,Pir Khadim Mosque,2,0,2
32.42136393000007,65.65759441000003,2712263,Niazo Khel,District Building Office,3,3,6
32.419620070000065,65.67159114000002,2712264,Chopani,Haji Agha Lala Private House,3,0,3
31.64940853000011,67.17797326000002,2715254,District Compound,District Building Office,4,2,6
31.341589150000047,67.32400657000004,2715255,Salisoon,Haji Manan Private House,3,2,5
31.486326950000024,67.03522199000005,2715257,Obto Village,Obto School,3,2,5
31.368492670000055,67.76578998000008,2715258,Aala Jirga Village,Aala Jirga Mosque,5,2,7
31.62359614000012,65.69651096000011,2701010,D06 - Nahia 6,Aino Secondary School,1,6,7
31.61811720000004,65.7126059,2701012,D04 - Nahia 4,Pakhwanai Walayat,7,0,7
31.615674990000038,65.64720464000006,2701022,D06 - Nahia 6,Mirwais Mena Girls School,4,2,6
31.621140670000067,65.76504105,2701023,Aino Mena,Sayed Jamaluddin High School,5,3,8
31.617717540000086,65.61073920000005,2701061,Kokaran,Yateemano School,4,1,5
31.61834830000006,65.83629141000006,2701062,D10 - Nahia 10,Ameer Lalee Hotel,5,3,8
31.73407696000009,65.7256401500001,2702109,Mohammad Yaqoob Qalacha,Mohammad Yaqoob Qalacha School,1,2,3
31.6582072800001,65.65779807000006,2702110,Baba Wali Sahib,Baba Wali Sahib Old District Office,3,0,3
31.613428900000034,65.57770777000007,2702113,Bagh Pul,Bagh Pul Hotel Park,3,2,5
31.780140960000058,65.74668710000006,2702114,Khana Gardab,Khana Gardab Madrassa,2,1,3
31.645695590000102,65.94733610000002,2703083,Azam Qala,Azam Qala School,3,2,5
31.490184055000082,65.87527434700007,2703084,Hakeem Jana Kalacha,Faram Tarank School,3,2,5
31.361102290000133,65.44812416000006,2704193,Marghar,Tranining Center Place,4,4,8
31.560715130000048,65.53871174000005,2704194,Karez Village,Salihan Mosque,2,2,4
31.549020850000105,65.31836114000005,2705163,Hawz Madad,Old Clinic,2,1,3
31.55722354000002,65.40918084,2705164,Pashmol,Asad Soor School,1,1,2
31.968794790000093,65.96801075000008,2706089,Wiyan,Wiyan Clinic,3,3,6
32.07574627000002,66.02687838000003,2706090,Baghto,Haji Fayab Private House,2,0,2
32.02147762000004,66.06644177000001,2706091,Asakzo Sozni,Safullah Private House,2,0,2
31.948267950000126,66.02799602000006,2706092,Borgi,Malak Salam Private House,2,2,4
32.16932389000003,66.04625696000002,2706095,Shah Toot,Fazal Karam Mosque,2,0,2
31.986712830000005,65.60199657000001,2707118,Naasir,Naasir School,2,0,2
31.98600713000012,65.47167655000007,2707124,Khak Rez Village,Khakrez Village Clinic,1,3,4
31.56294971000005,66.58508825000006,2708246,Khogyani,Mohamamd Neeka School,3,2,5
31.694035200000002,66.73291350000008,2708247,Speen Agra,Speen Agra Mosque,2,1,3
31.384762710000146,66.54681623000002,2708252,Taisan Village,Taisan Village School,2,2,4
31.33292331000006,66.58131426000003,2708253,Bala Zhara,Tesan Village School,2,1,3
31.747799120000014,65.12994252000007,2710137,Maiwand Chana,Shahidano School,2,0,2
31.637451740000046,65.03081805000005,2710138,Safozi Enjaran,Mohammad Yousuf Private House,3,0,3
31.5078044800001,65.23264025000006,2710144,Mirab Khor,Sardar Asad Private House,1,1,2
31.6226324,65.05610836000005,2710145,District Compound,District Building Office,0,3,3
31.801425290000097,65.06197733000002,2710148,Balos Haji Amanullah Village,Balos Haji Amanullah Village,2,0,2
30.991026890000022,66.41408787000005,2711203,Haji Raziq Village,Haji Raziq Guest House,6,1,7
30.9713621300001,66.41691556000009,2711208,Boldak Wesh,Haji Ahmad Shah Market School,3,3,6
31.092799450000008,66.44213304000003,2711209,Bambol,Bambol Madrassa,4,1,5
31.00904248000005,66.39986734000009,2711212,Speen Boldak,Qazi Madrassa,4,2,6
31.002958000000003,66.39174875,2711213,Haji Afzal Village,Malyad Alizai,2,2,4
32.41381515000018,65.65213232000006,2712267,Gordang,Haji Mirza Jamal Private House,2,1,3
32.41398586000003,65.75547667000004,2712268,Kanda Village,Wahab Khel School,3,0,3
30.17954185000006,65.99435898000004,2714199,Torzi,Wali Mohammad Khan Private House,4,2,6
30.137527040000073,66.00318497000006,2714200,Abozi,Faiz Mohammad Private House,3,2,5
31.573559260000017,65.70954999000003,2717004,Dand District,Haji Baba Guest House,3,3,6
31.58191418000007,65.64597159000003,2717011,Dand District,Rwani Secondary School,3,3,6
31.582847070000064,65.68183640000005,2717021,Dand District,Baldi Secondary School,3,3,6
31.548974580000102,65.72178756000005,2717051,Chaplani,Chaplani School,4,1,5
31.32015694000011,65.96293198100007,2718231,Shaga,District Building Office,2,3,5
31.32333361300006,66.20142877000005,2718232,Madad Khan Village,Madad Khan School,1,1,2
31.32856132000001,66.16735953300007,2718233,Madad Khan Village,Madad Khan Village Clinic,2,0,2
31.181683036000113,65.97961229500004,2718234,Hassanzai,Road Side School,2,2,4
31.113953821000077,66.0464469710001,2718235,Haji Mohammad Khan Village,Haji Mohammad Khan Village School,3,2,5
31.294229260000087,65.97900134000008,2718236,Haji Mohmand Village,Haji Mohmand Village School,4,2,6
31.05686727000006,66.01944899000006,2718239,Ameer Khan Village,Maalem Sadullah School Tent,4,4,8
31.45844113700004,65.55092080800004,2718240,Tangai Village,Tangai Village Tent,5,3,8
31.621275970000124,65.74654757000006,2701058,Karta-E-Malemeen,Shaheed Abdul Ahad Khan Karzai High School,4,2,6
31.600974610000026,65.6769990000001,2701063,D07 - Nahia 7,Abdul Hadi Dawi Secondary School,2,6,8
31.7224250000001,65.67305838000001,2702099,Babar,Ghazi Mohammad Akbar Khan School,1,3,4
31.447721260000005,65.91205328000005,2703070,Dalai Village,Haji Saifullah Oil Station School,3,1,4
31.616454770000136,65.97863744000003,2703072,Najwi Village,Latif Agha School,2,1,3
31.58322218000005,65.80766527000004,2703085,D05 - Nahia 5,Haji Anfiya Kalacha/Shorandam Markaz,2,1,3
36.0449373400001,64.65432100000001,2902023,Khwaja Namosi,Khwaja Namosi Girls School,0,3,3
35.535572830000014,64.80595251000007,2902024,Telaan,Telaan Mosque,1,1,2
35.64062794000002,64.97846193000002,2902028,Mir Qasim Gleem Baft,Mir Qasim Madrassa,1,1,2
35.66360644000004,64.93290691000004,2902029,Chehak Gleem Baft,Chehak Gleem Baft Mosque,2,1,3
35.63135288000004,64.65290167000005,2902048,Halwa Khor Bala,Halwa Khor Bala Mosque,1,1,2
35.91086740000004,64.64524039000007,2902049,Arab Aqsai,Arab Aqsai Boys Secondary School,1,1,2
35.888239220000045,64.82447954000001,2902051,Jamshidi,Jamshidi Secondary School,3,2,5
35.83350382000001,64.86724037000006,2902052,Dahendra,Dahendara School,2,1,3
36.010632140000006,64.68608003,2902201,Khwaja Musa,Jar Qala Khwaja Musa Mosque,1,1,2
35.840773680000034,64.65976127000003,2902202,Arab Kawan Bashi,Arab Kawan Bashi Mosque,1,1,2
35.88236367000007,64.58331810000003,2904065,Chaghatak,Chaghatak Mosque,2,2,4
35.78673540000001,64.53605587000006,2904066,Aiti Oroq,Aiti Oroq Mosque,2,1,3
35.914325680000104,64.49378559000007,2904068,Badghisi,Badghisi Mosque,2,1,3
35.96046123000011,65.52694337999999,2905143,Khwaja Arab Village,Qorgh Khwaja Arab Mosque,2,2,4
35.94317189000007,65.19112297000004,2905207,Qerma,Qerma Mosque,2,1,3
36.13588162000014,65.0815397800001,2906145,Gul Qadoq,Gul Qadoq Boys School,3,1,4
36.257089840000106,64.85555871000007,2906146,Tapa Qala,Tapa Qala Mosque,2,1,3
35.68626537000003,64.03049822000008,2907088,Waymas Village,Waimas School,1,1,2
35.74739416000001,63.83238126000003,2907099,Sar Takht,Sar Takht Mosque,1,1,2
35.59697223000008,64.30550956000005,2907106,Yuzbegi,Chakna Yozbegi School,2,1,3
35.59007472000007,64.16132919000006,2907107,Ghora,Ghora Mosque,2,1,3
35.67212603000003,64.53667042000004,2907109,Sayad Naqi,Sayad Naqi Mosque,2,1,3
35.59361105000002,65.0790376,2908135,Dahendra Village,Mullah Ghulam Sakhi Dahandara House,1,2,3
36.4646432100001,64.89689790000003,2909164,Char Shangho,Char Shangho Secondary School,3,1,4
36.39175783000007,64.93543327000008,2909165,Khair Abad,Khair Abad Primar School,3,1,4
36.33493803000007,64.90396288000002,2909168,Joq Ha,Joq Ha Mosque,2,1,3
35.34094386000001,64.73990738000006,2910121,Qadoghak,Qadoghak School,2,1,3
35.22983163000007,64.59364213000006,2910122,Takhta Band Lafra,Takhta Band Lafra Mosque,2,1,3
36.95606823000006,65.1157745500001,2913185,Kulal Khana,Qazi Baba Murad High School,3,2,5
36.95120761000009,65.14060093000005,2913186,Shahr-E-Naw,Dawlat Geldi High School,3,2,5
36.98423599000004,65.17775312000009,2914176,Arab Shah Tora Khan,Rahman Qol Shaheed High School,3,1,4
36.94933794000007,65.21319619999998,2914177,Chakman,Chakman High School,3,1,4
36.99048597000006,65.16170332000006,2914180,Arab Shah Payeen,Arab Shah Payeen Girls High School,1,1,2
31.612087380000133,64.46979044000001,3001001,Sarkaar,Haji Tawos Mosque,3,2,5
35.902738940000084,64.76273524000005,2901003,D07 - Nahia 7,Sayad Rajab High School,3,2,5
35.91599397000007,64.79011901000004,2901004,D02 - Nahia 2,Afghan Kot Girls High School,0,5,5
36.022715930000025,64.69247675000005,2902021,Gadai Qala,Gadai Qala Boys School,1,1,2
35.90640316000005,65.09922394000004,2902035,Zar Shoy,Omomi Zarshoy Mosque,2,2,4
35.95526629000006,65.13858719000005,2902038,Tirak Lek,Tirak Lek Mosque,1,1,2
35.74357546000001,64.80857297000004,2902039,Chekab Village,Burhan Bay Mosque,2,1,3
35.769565080000056,64.69984285000005,2902044,Taklai Hazar Sam,Taklai Hazar Sam Mosque,1,1,2
35.81991917000009,64.67728527000001,2902045,Moqani,Moqani Mosque,1,1,2
36.038160020000056,64.97654448,2903057,Bolak Bacha,Bolak Bacha Solidarity Council Building,2,1,3
36.07255767,64.84098150000005,2903058,Deh Naw,Deh Naw Boys High School,2,2,4
36.0298633400001,64.87473610000009,2903061,Samleek Pogani,Samleek Pogani Solidarity Council Building,2,2,4
36.04318238000004,64.84875030000005,2903062,Badghisi,Badghisi Girls High School,1,2,3
35.84736317000005,64.53369048000009,2904063,Bazar Almaar,Almaar Boys High School,4,3,7
35.5638859,64.56910709000007,2904073,Qarayee,Qarayee Secondary School,2,1,3
35.575944620000044,64.59870451000008,2904076,Khosh Bayee,Khosh Bayee Primary School,2,1,3
35.59080497000006,64.54981095000005,2904077,Aaq Masjid,Aaq Masjid Primary School,1,1,2
35.843189140000106,65.23171608000008,2905138,Balcheragh,Balcheragh Madrassa,3,2,5
35.896829090000004,65.51587708000007,2905139,Tash Qala,Tash Qala Boys School,2,2,4
36.22613555000002,64.86398995000009,2906149,Islam Qala,Islam Qala Boys School,3,2,5
36.155397270000094,64.9506300400001,2906150,Mahd Village,Mahd School,3,2,5
36.109791079999994,65.01539425000004,2906208,Kalta Shor,Kalta Shor Mosque,2,1,3
35.762456040000046,63.91034700000003,2907095,Chehl Gazai,Karez Mosque,1,1,2
35.75095501000001,63.98580072000003,2907096,Chaharshanba Uzbekya Village,Chaharshanba Uzbekya Mosque,1,1,2
35.67851321000014,64.05980469000012,2907204,Khatayee Village,Khatayee Mosque,1,1,2
35.73536973000005,65.3557827800001,2908123,Gholbiyan,Gholbayan Mosque,2,3,5
35.704990360000046,65.33273774000004,2908126,Takhara Village,Takhara Mosque,2,2,4
35.63678932000001,65.28086281000006,2908127,Dara-E-Zang,Dara-E-Zang Madrassa,3,2,5
35.330519350000024,64.43616260000006,2910116,Dasht Sahray Malghi,Dasht Sahrayee Malghi Mosque,1,1,2
35.394209040000035,65.26107731000006,2910117,Baam Surkh,Baam Surkh Mosque,1,1,2
36.958293959999985,65.07228939000002,2912192,Bagh Bostan Payan,Khalifa Abdullah Mosque,1,1,2
36.91712742000006,65.06958660000004,2912193,Qarghan,Kuhna Qarghan Primary School,2,1,3
36.0892035520001,64.86351618,2903210,Yangi Qala,Yangi Qala Mosque,2,1,3
36.02226729600005,64.87134156200007,2903211,Qezel Qeshlaq,Qezl Qshlaq Male School,2,1,3
35.67831395200002,65.27675578700007,2908213,Pakhlsoz,Pakhal Soz Female School,2,1,3
35.38636987900002,65.35647990000011,2910214,Pusht Darwaza,Mosque,2,1,3
35.921657260000096,64.77659554000005,2901010,D03 - Nahia 3,Jarnail Ghawsuddin Secondary School,5,0,5
35.90946155000003,64.77830134000004,2901011,D03 - Nahia 3,Pasha Khani Girls School,0,5,5
35.92692398000007,64.78440900000007,2901199,D04 - Nahia 4,Veterinary Mudiriyat,3,2,5
35.971818680000084,64.89381347000005,2903056,Shabakhto,Shabakhto Girls School,2,1,3
36.31211014000004,64.95232285000003,2906154,Shah Yousuf,Shah Yousuf Boys Secondary School,1,1,2
36.29248254000001,64.87232578000003,2906155,Faiz Abad,Shamsuddin Shaheed High School,2,2,4
35.78450669000004,64.28192101000005,2907091,Jegdalek Village,Jegdalek Mosque,2,1,3
35.72918073000008,64.33667387000006,2907092,Sawr,Sawr Mosque,1,1,2
35.69363872000008,65.16467974000007,2908132,Jar Qala,Jar Qala High School,2,2,4
35.67237525000005,65.13935272000002,2908133,Tagab Shan,Tagab Shan Madrassa,2,2,4
35.355173580000084,64.73557591000008,2910205,Ulyan Bandar Village,Ulyand Bandar Mosque,1,1,2
36.86448903000004,65.08320934000002,2911170,Aalti Bolak Wasati Village,Qaramqol Boys High School,3,1,4
36.838749030000024,65.13707114000003,2911173,Yousuf Mir Zayee,Yousuf Mir Zayee Girls School,2,2,4
36.85367332000001,65.08165429000006,2911174,Aalti Bolak,Aalti Bolak Girls School,2,2,4
36.91906982000008,65.09308753000005,2912198,Qarghan,Bagh Bostan High School,2,2,4
36.94528897000001,65.12328586000005,2913181,Shahr-E-Naw,Yoldoz Girls High School,4,3,7
36.90594371000002,65.11217209000006,2913183,Yangee Tigarman,Yangee Tigarman Girls High School,3,3,6
31.586452690000083,64.3655562800001,3001003,D02 - Nahia 2,Girls High School,0,6,6
31.58533434000003,64.36560981000012,3001004,D02 - Nahia 2,Boys Secondary School,6,0,6
31.60734659000007,64.37508093000004,3001012,C1 Numarat,Numarat C1 School,5,0,5
31.597944160000015,64.36132045000006,3001013,Tor Tank,Tor Tank Boys School,9,1,10
31.72661414000009,64.31818332000009,3002062,Dahna 31 Gharbi,Dahna 31 Gharbi Primary School,7,0,7
31.69541670000012,64.27105755000007,3002065,Naqil Abad,Naqil Abad School,4,0,4
31.82098060000004,64.56035125000004,3004038,Gereshk,Gereshk Haji Fabrika,3,2,5
31.820006450000037,64.57012669000001,3004039,Gereshk,Girls High School,0,4,4
31.076036930000047,64.1709948700001,3006121,Haji Dawood Khan Village,Hassan Abad Barjawi School,3,0,3
32.057618360000106,64.84086052000004,3008129,Nawai Maktab Bazar,Central Hospital,3,2,5
32.071937460000136,64.83753068000001,3008130,District Bazar,Central Mosque,5,0,5
31.514559100000053,64.0665271,3014086,Block 4 - F,Block 4 - F Building,2,1,3
31.529144980000094,64.23042719000009,3014087,Treekh Zabar,Faizullah Private House (Kochi Center),2,1,3
31.630118700000118,64.26293447000009,3002070,Loy Bagh,Loy Bagh School,3,1,4
31.681465240000062,64.31261711999998,3002071,Chah Enjeer,Chah Enjeer High School,2,2,4
31.64180541999999,64.21993969000003,3002080,Sheen Village,Sheen Village School,3,1,4
31.716168690000057,64.12606307000006,3002081,Jonobi Ja Enjeer Maktab,Noor Mohammad Village School,3,1,4
31.424904080000058,64.36110190000005,3003092,Mangal Zai,Mangal Zai School,3,1,4
31.37779026000007,64.28208466000007,3003093,Khalj,Khalj High School,4,0,4
31.40799066100004,64.34492724000008,3003103,Kharaba,Kharaba Clinic,5,0,5
31.35453314000009,64.29419262000002,3003104,Baslan,Baslan Clinic,5,0,5
31.04606188000006,64.20121550000002,3006114,Haji Hazar Ali Village,Haji Hazrat Ali Khan Village School,4,1,5
31.01789557000007,64.18516786000002,3006115,Haji Bari Dad Village,Kodalee School,3,0,3
32.404457210000004,64.47094564000005,3007204,District Compound,District Center School,6,1,7
32.159289410000014,64.96361935000006,3008133,Nasozi Sufla,Sher Ali Mosque,3,1,4
32.171638020000096,64.96966258000005,3008134,Nasozi,Nasozi School,5,0,5
32.35121228000003,64.77292558000012,3009180,District Compound,Akhtar Jan Market,4,2,6
32.28022017000011,64.81106227000006,3009187,Cheek Aab,Cheek Aab School,3,2,5
31.38908080000002,64.07228957000007,3014074,Marja Block 9,Marja Block 9 School,2,1,3
31.47104147000007,64.04604820000002,3014075,Sistani,Malak Private House,6,2,8
31.591887740000047,64.37544581000002,3001010,Karta-E-Lagan Nahia 2,Karta-E-Lagan High School,8,0,8
31.50202867999999,64.36732630000009,3001019,Haji Kareem Dad Village,Haji Kareem Dad Village School,5,0,5
31.724870520000014,64.41792956000005,3001029,Raheemkhelo Village,Korghojat School Babaji,2,2,4
31.637889010000002,64.35756952000007,3001030,Muhajereeno Camp,Khan Mohammad Mosque,3,3,6
31.460702600000086,64.33702285000001,3003107,Gorgeen Sufla,Gorgeen Sufla School,3,1,4
31.36278231000002,64.32043605000004,3003108,Gorgeen Ulya,Gorgeen Ulya School,3,1,4
31.838159220000094,64.62951415000005,3004055,Sarband,Haji Saleem Private House,3,1,4
31.130960190000046,64.19846171000007,3006125,Hazar Joft Village,Hazar Joft Village School,2,2,4
30.551374660000096,63.785629500000034,3011217,District Compound,District Building Office,2,1,3
31.37106127999999,64.10199132000008,3014083,Marja Block 11 Khord,Marja Block 11 Khord School,2,1,3
35.21470479000003,63.0176992400001,3102028,Jafari Village,Jafari High School,3,1,4
35.048756570000194,63.04927878000009,3102037,Mobarak Shah,Mobarak Shah Secondary School,1,1,2
35.08477015000011,63.06376320000008,3102038,Sang-E- Khers Village,Sang-E- Khars School,1,1,2
34.86830278000007,62.82235000000003,3102048,Kokjail Village,Kokjail Village School,2,1,3
34.899532300000075,62.719676530000065,3102049,Aab Barik,Aab Barik School,2,1,3
35.10643407999999,63.20090663000008,3103022,Khwaja Pesta,Khwaja Pesta Village Mosque,2,1,3
35.09738581000004,63.23614283000006,3103023,Jaknah Village,Jaknah Primary School,1,1,2
34.802257190000056,63.44161237000003,3104054,District Center,Jamiat High School,3,1,4
34.715297870000065,63.569343570000065,3104064,Arbab Mohammad Village,Arbab Mohammad Village,1,1,2
34.6522035200001,63.599223820000056,3104065,Deh Aabi,Deh Aabi Village,1,1,2
34.607102210000015,63.78179114000001,3104079,Bargul Village,Bargul Village Madrassa,1,1,2
35.58193303500006,63.3331155120001,3105147,Markaz Murghab,Markaz Murghab School,4,0,4
35.55271308000006,63.33346585000001,3105149,Joy-E-Khwaja,Joy-E-Khwaja School,2,1,3
35.45852200000005,63.36628900000006,3105150,Buz Baye,Buz Baye Mosque,1,1,2
35.159010480000084,64.42954599000005,3106109,Takht-E- Zard,Takht-E- Zard Village Mosque,1,1,2
34.97329413000009,64.23015565000001,3106110,Ghow Kalan,Ghow Kalan Village Mosque,1,1,2
34.89742855000006,64.35858413000003,3106112,Rubat,Rubat Mosque,1,1,2
34.897657790000096,64.35868406,3106113,Rubatak,Rubatak Mosque,1,1,2
35.740676460000074,63.818513070000044,3107140,Petow,Petow Village Mosque,3,1,4
34.98415035000012,63.130666940000104,3101002,Qala-E-Now,Shahr-E-Qala-E-Now Girls School,4,5,9
35.01573396000006,63.13296691000008,3101003,Faristan,Ferestan School,4,3,7
34.97513016000006,63.15277011000007,3101006,Qarqeito,Qarqeito School,4,2,6
34.94759966000007,63.21159651000003,3101007,Kharestan,Khareesan School,3,2,5
34.72666440000012,63.20769556000004,3101012,Malmanji,Malmanji Mosque,3,2,5
34.96876345000003,63.09848979000002,3101013,Takab Esmaeel,Tagab Esmaeel School,3,2,5
34.818872340000084,63.024805980000025,3101017,Aalam,Aalam Chob Bazar,2,2,4
34.769373380000005,63.05213752000007,3101018,Chakab,Chakab Clinic,2,2,4
34.801910090000035,62.89362415000003,3102043,Gandah Aab,Gandah Aab School,2,1,3
34.69171038000008,62.927481730000075,3102044,Dehistan,Dehistan Village Mosque,2,1,3
34.7042330100001,63.37324508000005,3104058,Joleeq,Joleeq School,2,1,3
34.72685645000004,63.45402344000006,3104059,Boyaha,Boyaha Village,1,1,2
34.960752280000065,63.30396062000007,3104068,Bab-E- Doosti,Bab-E- Doosti Village,1,1,2
34.82147749000005,63.51209802000007,3104069,Takak School,Takak School,1,1,2
34.853333330000055,63.721388880000084,3104076,Gunbad Shekh Gheyasuddin Village,Gunbad Shekh Ghiasuddin Madrassa,1,1,2
34.76677104000002,63.713642000000064,3104077,Nayek Village,Nayek Mosque,1,1,2
34.96466670000007,63.62597071000007,3104082,Khair Khana Village,Khair Khana Mosque,1,1,2
34.751720430000084,63.97969871000001,3106093,Meel Naw,Meel Naw Mosque,2,1,3
34.814554510000036,64.06824153000011,3106094,Aab Khor,Aab Khor School,2,1,3
34.94636473,64.62952652000006,3106104,Chushmah Bid,Chushm Bed Mosque,1,1,2
34.89102118000009,64.60054476000006,3106105,Chushmah Char,Chushma Char Village Mosque,1,1,2
35.73948356000009,63.78017896000003,3107124,Ghormach,Center School,5,0,5
35.73742073000013,63.82468762000011,3107125,Abgarmak Village,Abgarmak Village,2,1,3
34.80361111000018,63.24000000000003,3101008,Nechak Village,Social Center Building Najakzad Sarhang Village,4,1,5
34.95469535000003,63.139655450000106,3101009,Baghak,Baghak School,4,2,6
35.15100816000002,63.05915068000005,3102035,Hichkah,Hichkah High School,2,1,3
34.705623280000104,62.81974061000005,3102045,Seena Urdo Bazar,Sina Urdo Mosque,2,1,3
34.892186900000056,62.904861199999985,3102046,Padeh Laghari,Padeh Laghari School,2,1,3
34.87189866000006,62.852001330000036,3102175,Kockchail Dara,Takh-E-Dara Kockchail School,2,1,3
34.78142015000003,62.97188121000006,3102176,Sir Zarak Village,Serzarak Village School,1,1,2
35.07939017000007,63.27010217,3103020,Rubat,District Building And Rubat Clinic,3,1,4
34.848527730000036,63.79857886000009,3106091,Rigee,Rigee Village Mosque,2,1,3
35.082932450000094,64.34224311000011,3106101,Kazak,Kazak Village Mosque,1,1,2
34.78039874500008,64.39108009700001,3106199,Pai Chang,Pai Chang Mosque,2,1,3
34.87176876300009,64.36259781100007,3106200,Hazrat Mulah,Hazrat Mullah Mosque,2,1,3
34.71259432800011,63.86176111200006,3104193,Shorak,Shorak Mosque,2,1,3
35.55351431000002,63.35516712800003,3105194,Kapa Baba,Kapa Baba Village,2,1,3
34.344192600000056,62.20011509000005,3201005,D03 - Nahia 3,Jami High School,4,5,9
34.34000201000007,62.19971935000006,3201006,D03 - Nahia 3,Khwaja Mohammad Taki High School,5,6,11
34.34277034000009,62.21013623000003,3201008,D04 - Nahia 4,Balian Boys School,3,4,7
34.360024000000045,62.196089420000035,3201009,D05 - Nahia 5,Mehdeiah Ghur -E- Darwaz,4,5,9
34.35962063000004,62.20595470000009,3201011,D05 - Nahia 5,Experimental School,5,6,11
34.36034601000014,62.19771218000007,3201012,D05 - Nahia 5,Merman Hayati Bagh- E- Dasht High School,4,4,8
34.344082500000056,62.18939018000003,3201021,D07 - Nahia 7,Ekhtiarudden Mosque,7,0,7
34.35959036,62.21717190000004,3201022,D09 - Nahia 9,Amir Ali Shir Nawayee School,5,5,10
34.38415583000006,62.16838743000002,3201026,D09 - Nahia 9,Salahuddin Saljoqi School,3,4,7
34.364601910000076,62.18432351000009,3201027,D12 - Nahia 12,Abdul Ali Shah Tokhi School,6,5,11
34.33518541000003,62.19016225000005,3201029,D10 - Nahia 10,Hareewa Secondary School,3,4,7
34.33314363000009,62.176211470000084,3201030,D10 - Nahia 10,Hazrat -E- Belal Mosque,4,5,9
34.37894302600013,62.150743891000076,3201430,D12 - Nahia 12,Imigration Department,5,4,9
34.296856829999996,62.20864076000003,3202033,Second Cheghra,Paienda Mosque,0,4,4
34.31330285500007,62.1911616770001,3202034,Qafaslan,Qafaslan Mosque,4,3,7
34.33093180000003,62.244524840000054,3202067,Zaman Abad Village,Shaheed-E-Dashti High School,1,1,2
34.328993420000046,62.32493688000007,3202068,Tawah Beryan Village,Tawah Beryan School,2,1,3
34.42177409000007,62.05383911000009,3202072,Maslakh Awal,Immigrants Office,1,1,2
34.40209106000002,62.12937741000005,3202073,Eshaq Suliman Village,Eshaq Suliman High School,2,3,5
34.30751110000006,62.17282629000001,3202077,Bazdank Hasan Khan,Khwaja Abdullah Ahrar Secondary School,1,1,2
34.30480207000004,62.12204893000006,3202434,Rubat-E-Srosetan Village,Rubat-E-Srosetan Mosque,2,1,3
34.3782421700001,62.17393135,3202435,Muhala Babaji 12Th Nahia Heart City,Babaji High School,3,1,4
34.231556710000085,62.31641613000002,3203088,Kort Sufla Village,Kort-E-Sufla Mosque,3,1,4
34.24109712000002,62.28791748000001,3203089,Char Kabotar Khan Village,Char Kabotar Khan Mosque,1,1,2
34.21406119000005,62.10583545000002,3203099,Kofan Village,Kofan High School,1,1,2
34.248918590000095,62.09816097000004,3203100,Zangan Village,Zangan Secondary School,1,1,2
34.492290390000065,62.58207601000006,3204148,Karrukh Center,Karrokh Primary School,5,2,7
34.47670069000005,62.586935110000084,3204149,Paeen Muhala Karrukh,Sabz Posh Mosque,3,1,4
34.45712157000004,62.55279255000006,3204151,Dahan Ghar,Dahan Ghar School,2,1,3
34.45380215000005,62.48675251000007,3204152,Mujqandak Village,Mujqandak School,2,1,3
34.497844580000105,62.41782183000002,3204155,Nahistan Village,Faliz Kar School,1,1,2
34.481326390000106,62.715698970000034,3204156,Maluma Village,Maluma School,1,1,2
34.404988020000054,61.66592908000008,3205263,Shadah Village,Jadah-E- Shadah School,1,2,3
34.39386062000011,61.683929870000064,3205264,Ogha Village,Shaikh Abu Lais School,2,1,3
34.33497547999999,61.716693980000095,3205274,Mulkiha,Mulkiha New School,2,1,3
34.24187398000011,62.75171830000004,3206122,Bazyan Village,Bazyan Mosque,2,0,2
34.240023350000094,62.75211458000006,3206123,Bazyan Village,Bazyan School,0,2,2
34.29302796000006,62.46391743000002,3206137,Ghooran,Ghooran School,1,1,2
34.25613486000004,62.888198840000044,3206138,Mar Abad Village,Mar Abad Secondary School,3,2,5
34.30932494000007,62.56182236000008,3206140,Turan Village,Turan School,1,1,2
34.72348396000009,62.055464920000055,3207168,Chahar Aolang Village,Chahar Aolang School,2,1,3
34.765333170000105,62.290758910000065,3207179,Khaleefa Rahmat Village,Khaleefa Rahmat School,2,1,3
35.24395437000007,62.28310942000009,3207189,Shahrak Torghondi,Torghandi Awal School,4,0,4
35.24395188000015,62.28299744,3207190,Shahrak Torghondi,Girls High School,0,4,4
34.938416780000026,61.77532915000005,3208196,Bazar Qarabagh,Qarabagh Primary School,5,1,6
33.827777580000074,62.34963224000007,3209284,Jahan Khan,Jahan Khan Mosque,1,1,2
33.62056893000008,62.66633807000005,3209285,Mir Abad,Kharbed-E- Mir Abad School,2,1,3
34.850565640000106,62.561350580000045,3210407,Second Kaklam,Kakalam Duowm Girls Secondary School,0,2,2
34.78444798000002,62.65692785000001,3210417,Khwaja Qalandar,Khwaja Qalandar School,2,1,3
34.81017164000007,62.70055048000004,3210418,Zenda Hashm Village,Zenda Hashm School,2,1,3
34.353475290000056,61.531565680000014,3211248,Gandummna,Gandummna Mosque,2,1,3
34.385331760000014,61.59431424000003,3211249,Barnabad Village,Barna Abad Zanana Girls School,0,3,3
34.5076255700001,60.916236460000086,3211259,Markaz-E-Chahe Rig Village,Chahe Rig Mosque,2,2,4
34.32299458000007,63.06754243000003,3212368,Sabera Dasht Village,Saberah School,1,1,2
34.34272248000009,63.14852707000004,3212369,Musafran,Musafran Mosque,2,1,3
34.38457777000005,63.42095555000003,3212371,Jenowa Village,Jenowa Boys School,2,0,2
34.38374217000011,63.420600210000046,3212372,Jenowa Village,Jenowa Jaded Girls School,0,2,2
34.50332398000015,63.47561507000003,3212386,Deh Gahee Mardanah,Deh Gahee Mosque,2,0,2
34.50224467000007,63.48067713000008,3212387,Deh Gahee Zananah,Dawawm Mosque,0,2,2
34.323910300000094,63.12044992000003,3212468,Gunah Abad,Abdulrahim Khan Mosque,1,1,2
33.304151020000056,62.15668277000001,3214298,Takht-E- Bazar,Markaz-E-Sharwaly,6,0,6
33.38188029000008,62.306331400000005,3214322,Qala-E-Mirza,Qala-E- Mirza Haji Akram Mosque,2,1,3
33.34173507000006,62.32066825000007,3214323,Deh Abdul Aziz,Deh Abdul Aziz School,2,1,3
33.84270495000007,63.37220099000007,3215355,Aab-E- Mahi,Aab-E- Mahi Mosque,2,1,3
33.896404020000084,63.20338267000006,3215356,Pay-E- Hesar,Shura-E- Ankishafi Building,2,1,3
33.87512985000013,63.14260077000004,3215360,Haji Bagh,Haji Bagh Mosque,1,1,2
33.81440835000006,63.38391549000006,3215361,Shash Yar,Shura-E- Ankishafi Shash Yar,3,2,5
33.839062430000055,63.543587330000044,3215363,Dahan-E-Peyazak,Payezak Village School,1,1,2
33.85731370999998,63.32019687000009,3215364,Arkh,Mosque,2,1,3
34.35181552000004,63.83922969000012,3216397,Salma,Salma School,1,1,2
34.33419150000003,63.90652062000002,3216398,Shir Khaj,Shir Khanj Mosque,1,1,2
34.37343721000008,63.98706760000003,3216470,Rubatak,Rubatak Mosque,1,1,2
32.37732836999999,62.11794905000004,3301001,Farah City,Merman Nazo High School,4,1,5
34.36302524200007,62.224014381000046,3201472,Ustad Kamaludin Behzad Highschool,Ustad Kamaludin Behzad High School,2,2,4
34.34321133000003,62.22106265000007,3201015,D06 - Nahia 6,Pul -E -Rageena Mosque,4,4,8
34.33336559000007,62.217393170000044,3201016,D06 - Nahia 6,Osman-E- Ghani Mosque,5,4,9
34.2969906400001,62.228036760000066,3202046,Naween Sufla Village,Naween Sufla School,2,1,3
34.34828307000009,62.307755050000104,3202047,Kahedastan Village,Kahedastan School,2,1,3
34.26721333000011,62.266255930000035,3202050,Adran,Adran Mosque,2,1,3
34.309844782000006,62.1858222050001,3202051,Bozdang Alanjan,Bozdang Enjil School,2,1,3
34.323737610000116,62.22545969000003,3202058,Qeeizan Sangar Village,Ghizan Sangar Mosque,2,1,3
34.30745922000005,62.24940446000002,3202059,Gerdaab Village,Gerdaab School,1,1,2
34.27117974800004,62.364101140000045,3202061,Sar Asiab Village,Sar Asiab School,3,0,3
34.282979040000015,62.23085794000006,3202063,Garazan Village,Aboraihan-E- Alberoni Primary School,2,1,3
34.295343280000026,62.31656241000008,3202064,Naw Badam Village,Naw Badam High School,2,1,3
34.32679584000005,62.28860059000003,3202066,Badloo Village,Ghazali Badloo Scondary School,1,1,2
34.35106025000002,62.09182335000001,3202436,Jalal Abad Village,Sofiyan High School (Amir Esmaeel High School,2,1,3
34.03400308000007,62.18267166000002,3203082,Chashma Khani,Primary School Deh Now,3,1,4
34.22810950000006,62.330381420000066,3203094,Kort Ulya Village,Wahdat High School,2,1,3
34.21547677000005,62.15089527000002,3203095,Malan Village,Malan High School,2,1,3
34.24089457000006,62.420612490000096,3203105,Bechqi Village,Bechqi Mosque,1,1,2
34.22814309000004,62.219972500000054,3203106,Mahalla-E- Baghaban Ha,Wazir Fath Khan High School,4,2,6
34.223800870000034,62.04455404,3203109,Tezan Village,Tezan Secondary School,1,1,2
34.28207419000004,62.04265119000004,3203110,Farjai Village,Farjai Primary School,1,1,2
34.03959817000003,62.07791887000009,3203118,Sharb-E-Paeen Village,Kochis Location,1,1,2
34.27707687000004,62.06482329000006,3203437,Kalata Mazreha,Kalata Mazreha Mosque,1,1,2
34.342587340000094,61.74732555000005,3205270,District Center,Fushanj  School,1,1,2
34.305945260000044,62.51803115000008,3206143,Tunion Village,Tunion School,1,1,2
34.24660603000011,62.86863498000006,3206144,Boreya Baf Village,Boreya Baf School,1,1,2
35.186313210000094,62.19081016000008,3207191,Barjenak Village,Barjenak School,2,1,3
35.09574112000005,62.32312078000007,3207192,Yakatoot Village,Yakatoot School,2,1,3
