"lat","lon","pc_code","pc_location","pc_name"
34.50867443,69.18066344,0101001,"کوچه اچکزی","ليسه عاشقان و عارفان"
33.87580948,69.6333802,1308138,"کوندی حسن خیل کلی","مسجد ونس خیل"
34.456239627,70.594289245,0605160,"داربنګ","دار بنګ مکتب"
34.24672994,69.99698577,0619243,"ماما خيل","ماماخيل ليسه"
34.47952462,70.92009011,0614499,"علي خيل کلی","شخصي کور"
33.30640805,62.14273845,3214301,"قندیز","مسجد قدیمی قندیز"
36.910654936,66.848346863,2106177,"شهاب افغانیه","مسجد جامع خواجه ولی"
34.88705194,69.68533361,0206095,"شکوت","متوسطه شهید حفیظ الله"
34.94656316,68.541312151,0310131,"بازار ولسوالی دشت گذار","کیلینک حیوانی ولسوالی"
34.27624227,63.24147262,3212376,"پشت پاجی","مسجد پشت پاجی"
34.28907849,63.05783067,3212377,"قریه سیروان","مکتب سیروان"
35.00530741,68.86111751,0307090,"سرپل دو آب","مسجد جامع دو آب"
34.99556325,65.70398113,2301039,"جنداک","مکتب جنداک"
34.86126123,70.36992997,0704076,"پړوایی","دپړوائي ښوونځی"
34.94980635,71.22808631,1506063,"شین کوړک","مکتب ابتدائیه"
34.96645553,71.27483787,1506064,"شیگل واشیلتن","تعمیر ولسوالی"
35.01560098,71.39875741,1512054,"بیاداد","مکتب ابتدائیه"
33.78764238,64.8916015,2305113,"قریه تخته ترمه","خیمه بازار تخته ترمه"
33.97186444,63.71988353,2309178,"قریه خوا جه ها","مکتب تولک"
33.94593145,63.79730451,2309193,"سنگ خلق","مکتب ابتدای سنگ خلق"
32.404516,64.47085691,3007196,"نوزاد کلان","اسعد سوري ليسه"
32.23240214,64.6983095,3009184,"شیرغزی","د نور محمد كور"
32.26020614,64.74522454,3009185,"کاڼی مانده","خان محمد مسجد"
35.61373847,63.31073532,3105153,"اکازی ها","مکتب اکازی ها"
35.52160345,63.37038205,3105158,"جوی کار","مکتب جوی کار"
35.61215435,63.32484536,3105188,"سرخلنک جوی گنج","مسجد سر خلنگ جوی گنج"
32.90659178,61.90357121,3303055,"کاریز صادق","مسجد کاریز صادق"
32.29932536,61.29710971,3304072,"حسن آباد علیا","مسجد حسن آباد علیا"
32.76432537,62.57846224,3306149,"قریه تودنک","خیمه قریه تودنک  ( کوچی )"
32.55547772,63.23385868,3310177,"مغل آباد","مسجد مغل آباد"
34.95213325,69.59841878,0205039,"افغانیه","مکتب قاضی عبدالجمیل"
34.85358832,69.64536943,0206078,"مرکز ولسوالی","لیسه غازی عثمان"
34.85720486,69.3929361,0308143,"ملا احمد خیل","مکتب ملا احمد خیل"
34.79483419,69.46397381,0308144,"دندر","مکتب دندر"
34.77972019,70.11452913,0703093,"عليشنګ","دکوټوال خنډودکلي جومات اوعامه برنډه"
34.61408006,70.76200808,1514083,"برنورگل","لیسه ذکور"
36.98623977,70.63250517,1702054,"گزان","مسجد گزان"
37.05528508,70.65470123,1702055,"باغ مبارک","مکتب باغ مبارک"
33.59241815,64.22200661,2308232,"سیب تلخ","مکتب سیب تلخ"
33.90772129,67.121170598,2407191,"شازان","مسجد"
33.832265672,67.245977242,2407192,"غجورک","مسجد"
33.539880313,66.666722599,2402172,"راخان","مسجد"
35.751902467,68.498323224,0902260,"نوامد قره خوال شلکتو","مسجد نوآمد"
35.59830178,68.730003688,0903261,"خواجه زید سفلی","مدرسه ابوحنیفه"
34.466101132,69.248404801,0104539,"قلعه حسن خان سفلی","مسجد جامع قلعه حسن خان"
34.492235239,69.31229847,0104540,"حصه دوم سید جمال الدین قریه حسین خیل","مسجد مهترلام بابا"
34.906862353,70.377063666,0704131,"لوکاړ","مکتب"
34.75865579,70.297346097,0704132,"چينچار پول","مسجد"
36.290958017,68.735631698,0905275,"لارخوابی","مسجد ملاخال محمد"
33.316118869,69.864384958,1402177,"د ديګانو کلى","جامع جومات"
37.057933355,71.175247317,1712305,"درگاب","مکتب وکیل عبدالجبار"
36.043066468,66.236171748,2204141,"سفر قشلاق","مسجد"
31.83222133,66.374167956,2602052,"درو","دحاجی عبدالعزیز پمپ"
35.723481607,65.260903405,2908212,"قلعه توردی","مکتب ابتدائیه نسوان قلعه تردی"
34.50909961,69.242327555,0101520,"عقب فابریکه کوکاکولا","مسجد حضور حضرت نبی"
34.577129423,69.169276122,0101528,"ناحیه 15","مسجد محمد حنیفه غازی"
35.142909838,69.285446149,0305154,"عزت الله خیل / گلبهار","متوسطه عبدالهادی شهید"
34.414383097,70.564862527,0605512,"کوز ده غازی","کلینیک"
34.441254681,70.628792683,0605513,"درگل سفلی","مولوی ابراهیم کاموی ښوونځی"
35.640124196,69.880302232,0807108,"چونی","مکتب چونی"
35.30317036,69.424468827,0802099,"چمال ورده","مسجد چمال ورده"
36.089925676,69.003424525,0904265,"خواجه گلخوار","مکتب خواجه گلخار"
34.932332993,66.461486995,1005178,"کلیگان","لیسه نسوان کلیگان"
34.27125241,62.363835,3202062,"قریه سر اسیاب","مکتب متوسطه سر آسیاب"
36.71706323,69.25501896,1804059,"سقابه","مکتب دهانه بنگی"
36.52873468,69.36576055,1804060,"میرزابچه","لیسه مولوی عزت الله شهید"
36.9165261,69.72089006,1810119,"دشت مرزایی","لیسه کوکتابه"
37.16897375,69.80510956,1810120,"گنده","مکتب متوسطه گنده"
36.52187461,67.82924916,2002022,"قریه دولت آباد","مکتب متوسطه دولت آباد"
36.45507944,67.89622142,2002023,"مرکز ولسوالی","تعمیر ولسوالی"
34.3447002,61.47871013,3211456,"مرکز سر آسیاب","مسجد سرآسیاب"
34.36984989,63.17585974,3212365,"مرکز اویه  چهار محل","لیسه مرکز اوبه"
34.13035484,67.067175607,1007186,"دره غول سیا","مسجد دره غول سیاه"
37.008310634,70.107234913,1702287,"نوآباد قلعه ظفر","مسجد قلعه ظفر"
33.584588859,70.0865715,1413185,"ساړه پيله","ساړې پيلې ښونځې"
36.96926175,70.339929196,1707295,"چپه","مسجد جامع قریه چپه"
37.046219474,70.12431706,1810209,"دشت امانی","مسجد جامع"
36.566111801,70.948278249,1718313,"آورغ","متوسطه نسوان آوغ"
36.96337173,68.579586645,1907219,"شور آرق","مکتب متوسطه"
33.939944208,65.716202445,2405182,"دهن آبدره","مسجد"
34.8362794,63.874135958,3106198,"کفتر خان","مسجد کفتر خان"
32.071870008,64.837401346,3008226,"نوی مکتب","نوی مکتب"
34.364726459,62.161099311,3201474,"مكتب متوسطه سيد قناد","مكتب متوسطه سيد قناد"
34.373389482,62.18022871,3201475,"ناحیه 09","مولانا جامی"
34.60836995,69.26238547,0105474,"قلعه زرین","مسجد شریف حاجی احمد شاه"
34.68545039,69.03443985,0106394,"قلعه وزير","ليسه دره شکردره"
34.66741061,69.07541514,0106395,"قلعه مراد بيک","ليسه قلعه مراد بيک"
34.86588865,69.18468964,0114366,"دینار خیل","مکتب متوسطه عبدالرحمان بابا"
34.84395674,69.15720909,0114367,"مرکز ولسوالی","ليسه عبدالوکيل شهيد"
34.56868747,69.71990075,0115479,"لوي کلي","مسجد یاردل اوریاخیل"
34.36484157,69.57981103,0115480,"لوي کلي","مکتب ابتدائيه تيزين خاص"
34.57776629,69.59578261,0115517,"گوگا مندا","مکتب گوگا مندا"
34.66239124,69.83624382,0115518,"سپیر کوندی","مکتب سپیر کوندی"
34.43259103,70.40295759,0603084,"دوسرکه","کلینيک بختان"
34.35657341,70.22309465,0603085,"فتح آباد","فتح آباد کلینيک"
34.08106757,66.92585335,1007150,"تخته ها","مسجد تخته ها"
34.03167321,66.97161039,1007151,"واز درغان","مسجد واز درغان"
34.11790565,66.96819418,1007159,"نس پتان","مسجد توپ اسمعیل"
32.9709349,69.07377057,1205081,"شاه طوری","ستر جومات"
32.97138823,69.07476653,1205082,"شاه طوری","محمد حیات میلمستون"
34.35120751,70.802447,0614495,"دورخيل","دورخيل ميدان"
34.096795171,70.694153828,0615355,"کوشتال","کوشتال منځ کلی جومات"
34.11713102,70.758938,0615362,"زوړ ده سرک","د پیروخیلو لوي تپه جامع جومات"
34.13147321,70.73537675,0615363,"شیخ مل خیل","ده سرک کهنه لیسه"
34.22176719,70.89086265,0617462,"دامان کلی","دامان کلی سپین جومات"
34.499387,69.13194054,0101123,"قلعه وزير","مدرسه رسالت"
34.49259015,69.12361663,0101124,"قلعه وزير","مسجد سفيد"
34.49059366,69.15713866,0101130,"باغ رييس","ليسه نسوان سلطان راضيه"
34.43177569,69.13631605,0101131,"فاميلي هاي ريش خور","ليسه فاميلي هاي ريش خور"
34.51012161,69.23200021,0101157,"کارته نو","مسجد محمدیه سیدنورمحمد شاه"
34.50590043,69.23463786,0101158,"کارته نو","مسجد احمدي"
34.53786616,69.20139129,0101182,"مکروريان سوم","ليسه الفتح"
34.54156532,69.20102822,0101183,"مکروريان سوم","ليسه ابوالقاسم فردوسي"
34.56037592,69.17536697,0101198,"چهار قلعه","مسجد محمديه"
34.56087391,69.16987809,0101199,"چهار قلعه","مسجد بي بي رقیه"
34.54594068,69.17151227,0101213,"قلعه فتح الله","مسجد فاطميه"
34.54569498,69.16593309,0101214,"قلعه فتح الله","مسجد سرک چهار"
34.54416071,69.19785094,0101218,"سرک بي بي مهرو","مسجد حاجي قاسم"
34.54655347,69.20001902,0101219,"سرک ميدان هوايي","ليسه نسوان بي بي مهرو"
32.18463805,69.00664213,1208126,"پایندی کلی","مولوی سراج الدین مدرسه"
32.44728365,68.85172837,1208127,"شکین","بازار جومات شکین"
33.885779689,69.67766876,1308207,"موتی کلی، سکندرخیل، احمدخیل","دموتي مكتب"
33.66666217,69.7848217,1309170,"کوټکی، سترکلی","مسجد کوټکی"
33.32614995,69.9427947,1401003,"د عمر کلي","د عمر کلي درمند"
33.3276505,69.94409176,1401004,"شمل عمر کلى","د محمد والي شاه هجره"
36.632766822,68.849979684,1902115,"ناقل سالارزی","مسجد سالارزی"
37.19456548,68.89822911,1905093,"مرکز شهر امام صاحب","سر چوک امام صاحب"
37.15549619,68.90591411,1905094,"قریه اوته بلاقی ها","مکتب اورتبلاقی"
35.50397325,67.76274366,2005072,"قریه آب خورک","مدرسه آبخورک"
35.56491998,67.81933833,2005073,"مرکز ولسوالی","مدرسه دو آب"
37.00583957,66.08406227,2804069,"چارچنغو","لیسه چارچنغو"
37.01402769,66.13708515,2804070,"منگجیک","مکتب منگجیک"
37.53171547,65.71695304,2806086,"قرنس","مکتب قرنس"
37.49518735,65.80223849,2806087,"چوپلی","مکتب چوپلی تپه"
36.41997614,64.88473039,2909158,"قوزی بای قلعه","لیسه نسوان قوزی بای قلعه"
36.36500584,64.90297028,2909159,"کوک چه قلعه","مکتب جر قلعه"
34.27960544,62.39698059,3202078,"قریه سر حسن خواجه","مكتب متوسطه شهدا"
34.22481174,62.62732016,3206128,"قریه شاه آباد","مکتب شاه آباد"
34.2180142,62.59203992,3206129,"قریه گل میر","لیسه گل میر"
30.946666,61.858275,3401007,"زرنج","خوابگاه زرنج"
34.524206,69.112452,0101086,"قسمت الف خوشحال مينه","لیسه حضرت شمس المشایخ"
34.5335,69.1707,0101022,"جوي شير","مکتب ابتدائيه پارسا"
34.544457,69.12468,0101060,"نو آباد ده کيپک","لیسه نسوان ده کیپک"
33.82865917,63.82927902,2309189,"رباط","مکتب متوسطه خمین"
34.14520214,63.85116644,2309190,"گاو کوش","منزل ارباب ملک"
34.13027579,70.6901128,0615375,"ميدانک","ميدانک صادق حجره"
34.0716142,70.79602604,0620402,"مورچل کلي","ترخی ابتدائیه"
33.13743336,68.76837563,1201017,"میرزا قلعه","جومات میرزا قلعه"
33.13720056,68.76859979,1201018,"میرزا قلعه","میلمستون اصغر"
34.06038433,62.37629026,3203117,"قریه گمبدی","موقعیت کوچی های گمبدی"
34.13266218,68.66176371,0404083,"قریه نورخیل","منزل صالح محمد"
32.79120847,69.34195848,1214264,"سیرداګ","مخفیروالله میلمستون"
32.05788655,65.16030108,2709131,"د اسحق زو كلي","د جمعه خان كور"
34.67777777,63.70694444,3104075,"قریه گنبد","مسجد گنبد"
34.274728609,66.928750303,1007188,"قلعه سیا","مسجد"
33.247075315,68.14171882,1111406,"اشلیان","مکتب قاری عبدالله"
34.507042,69.178974,0101014,"بالا جوي عاشقان و عارفان","مسجد خواجه صفا"
34.52555,69.18972,0101016,"باغ علي مردان","مکتب عنصری بلخی"
34.4696,69.13353,0101141,"ده دانا","ليسه نسوان ده دانا"
34.506806,69.224282,0101153,"سرک سه رحمن مينه","لیسه محمدهاشم میوند وال"
34.5,69.2342,0101160,"کارته نو","مسجد عثمان غني"
34.509681,69.225044,0101162,"سرک اول رحمان مینه عقب فابریکه قیر","مسجد شاه  پاچا"
34.591459,69.149183,0101248,"سرک پنجصد فاميلي","مسجد پنجصد فاميلي"
34.4891,69.129,0101496,"مسجد امام جعفر تپه سادات","مکتب متوسطه سادات"
34.582873,69.159334,0101291,"چهار راهی خواجه بغرا","پرورشگاه فرشته نجات"
34.5853,69.16,0101308,"سر پل خواجه بغرا","مسجد حضرت يوسف"
31.592479,65.709543,2717015,"دویمه ناحیه","مكتب حاجي عرب"
31.591113,65.696402,2717052,"الکوزو کوچ خانه","مسجد سالو خان چمن"
34.5765601,69.13585256,0101237,"کودکستان خير خانه","لیسه عبدالغفور ندیم"
34.56518055,69.14429722,0101238,"لب  جر","مسجد حضرت یوسف"
34.50474088,69.06990089,0101257,"باغ خان","مسجد امام محمد تقي"
34.49613888,69.07752777,0101258,"دشت بيست هزاري","ليسه عبد الرحيم شهيد"
34.48731744,69.06700537,0101262,"نو آباد دوغ آباد","مسجد موسي ابن جعفر"
34.49991778,69.05467935,0101263,"گذر گلستان","ليسه معرفت"
34.20087095,71.04422899,0617463,"لوي ډکه","صلح ازادی تجارتی لیسه"
34.572254345,69.160067815,0101529,"ناحیه 15","مسجد پروژه خراسان"
34.581793968,69.1636212,0101530,"کوچه برج برق","مسجد جامع خواجه بغرا"
34.606757086,69.068285149,0101531,"شهرک نجات","لیسه خصوصی صدیق اکبر"
34.56682518,69.390961368,0105533,"اده تورخم","مسجد حاجی عبدالله خان"
34.603846217,69.372638397,0105541,"جیران","مسجد قیس و لونگ"
34.617692925,69.1692788,0106542,"شهرک الغوی","مسجد شهرک الغوی"
34.403086896,70.622426047,0605511,"ده طاهر","ښوونځی"
34.387488467,70.663916925,0602509,"ګردیکس","مکتب ابتدایه"
34.424059719,70.323374439,0603510,"سیدو خیل","مکتب سیدوخیل"
34.431119083,70.65022811,0605514,"بازید خیل","جومات"
34.563740734,70.530009643,0606515,"گمبیری","مکتب گمبیری"
34.347362086,70.189873303,0608516,"چمتله","لیسه"
35.30975224,69.546815897,0801097,"دشتک","مکتب متوسطه کوه منجهور"
35.277739142,69.47956859,0801098,"مرکزولایت،بازارک","مسجد مارشال فهیم"
35.758910542,68.769196919,0903262,"سنگ سوراخ","مکتب متوسطه سنگ سوراخ"
35.837026663,68.805076824,0903263,"ناصری ها","مکتب متوسطه ناصری"
35.598126999,68.647883396,0903264,"دره گی","مکتب"
37.105604606,70.536641035,1701284,"دشت شهداء","لیسه ذکور تجربوی الجهاد"
37.298549245,70.455790503,1704292,"ورنگ","لیسه ورینگ"
37.364836385,70.426839277,1704293,"پهن دره","مکتب متوسطه پهندره"
36.864329893,70.437277503,1707294,"ترگنی پایان","مدرسه ترگنی پاین"
33.288715133,69.867197476,1404182,"شاعر کلى","شاعر کلي جومات"
33.334015,69.881096,1401024,"متون چينې کلى","د محمد انور جومات او هجره"
32.918975,69.158374,1211163,"قره خیل کلی","ارګون زوړ ښوونځی قرخیل"
32.740717,69.286422,1214252,"فاخر خان مدرسه","ملا اقب خان میلمستون"
36.976909753,72.794213572,1728211,"سست","مکتب متوسطه سست"
37.11921975,70.5771989,1701008,"ناحیه اول","مسجد جامع اتفاق"
37.15679029,70.52952398,1701009,"قریه آس","مکتب ضیاوالدین شهید"
37.08745351,69.17453754,1906185,"قریه ملا قلی","لیسه ملاقلی"
37.21777777,68.94444444,1905067,"قورغان تپه","مکتب متوسطه قرغان تیپه"
37.11750057,70.58084193,1701019,"ناحیه اول شهر کهنه","تعمیر کهنه لیسه عالی مخفی"
37.05186245,70.42126568,1702056,"شهر وحدت","لیسه نسوان شهر وحدت"
37.0478517,70.32949994,1702057,"برلاس چنار","مکتب برلاس چنار"
37.28183873,70.41409324,1704025,"نالند","کلینیک نالند مرکز ولسوالی"
37.21973997,70.27127866,1704026,"انار دره","مکتب اناردره"
37.33960511,70.33566635,1704031,"دشت شیبر","مکتب کشت گاه"
37.39818137,70.34956235,1704032,"شلخزار","مکتب شلخزار"
36.99123999,70.71704087,1705077,"تاجکان","لیسه نسوان تاجکان"
37.02623219,70.7494541,1705078,"درخان","مکتب متوسطه درخان"
36.93047356,70.3481802,1707063,"قریه فاضلان","لیسه عالی مدینه"
36.9031265,70.37225426,1707068,"حویلی صاحب الدین","مسجد جامع نو آباد روی دشت"
36.85902402,70.47925158,1707071,"باغ صوفی","لیسه عارفان"
36.84420123,70.52943455,1707072,"دو آب","لیسه دو آب منجی"
37.50666117,70.48580701,1709134,"زو","مکتب زو"
37.52152262,70.50989858,1709135,"پیتاو","مکتب پیتاو"
36.85327794,70.8390593,1710084,"خر انداب","لیسه غلام محمد خر انداب"
37.31107211,70.16815296,1713137,"خورده کان","لیسه خوردکان"
37.38181749,70.17411809,1713138,"کره بین","مکتب کره مابین"
37.35579982,70.04925382,1713143,"بری خم","باری خم"
37.41058833,70.13734916,1713144,"چوگانی","لیسه چوگانی"
36.82647285,70.17859775,1715162,"وخشی","مکتب وخشی"
36.83144968,70.17093583,1715163,"خمبک","مکتب خمبک"
36.688865244,71.140130126,1716098,"تیر گران","لیسه نسوان تیر گران"
37.77451852,71.54261771,1719221,"چاسنور علیا","لیسه چاسنور علیا"
37.884655,70.22138848,1720238,"سنگ آب","مسجد جامع سنگ آب"
36.85506,71.52269,1723199,"یخدرو","مکتب یخدرو"
37.06001627,71.4294805,1723200,"زیچ","مکتب زیچ"
36.60264288,71.3891728,1725193,"زرخان","مکتب عاشور بیک"
36.5730477,71.3918012,1725194,"دند","مکتب دند قریه دند"
35.98193043,70.90075681,1726191,"شهران","کلینیک شهران"
38.2738718,70.92810794,1727268,"خرکد","مدرسه خرکد"
37.453043658,70.567483963,1708296,"زرنود بالا","مسجد زرنود"
37.124716072,70.585417967,1701285,"گذر محکمه","لیسه عالی مخفی"
37.049150545,70.449294951,1702286,"گنده چشمه","مکتب متوسطه گنده چشمه"
36.970783704,70.179560896,1711303,"پسته خور","مکتب پسته خور"
36.92515974,70.258990402,1711304,"توتک","مکتب حضرت عباس"
37.476131366,70.036224542,1713306,"اسپا خواه","مکتب"
37.350399749,70.124401614,1713307,"بل بل دره","مسجد بلبل دره"
36.87623437,71.058029287,1716311,"قلات","مسجد سر قلات"
36.523328995,70.837992583,1718314,"ته لولیچ","مکتب ابتدایه"
37.219533004,71.439398524,1723315,"قاض ده","مکتب لیسه غاران بلا"
36.67202229,69.64891581,1801002,"خطايان","لیسه  خطايان"
36.71013466,69.6140482,1801003,"الفاروق","مکتب الفاروق"
36.7960468,69.6698006,1801005,"خواجه خلیل","مکتب خواجه خلیل"
36.73917365,69.53944421,1801006,"ناحیه سوم","لیسه ذکور سید عبدالله"
36.73622772,69.53416046,1801010,"ناحیه سوم","لیسه داکتر سید حسین"
36.73069365,69.5491905,1801011,"ناحیه اول","لیسه ذکور ابو عثمان"
36.74086425,69.3639122,1801021,"شهدا قلبرس","لیسه گل نظر"
36.72563101,69.42963423,1801022,"آق مسجد","لیسه آق مسجد"
36.7430891,69.59076978,1801032,"گنج علی بیگ","ليسه گنج علی بیگ"
36.68296109,67.09460181,2101023,"ناحیه 5","مکتب سید اسماعیل بلخی"
36.67879383,67.08301316,2101024,"ناحیه پنجم مزار شاروالی","نساجی"
36.69122549,67.12259213,2101029,"کارته خراسان ناحیه هفتم مزار شاروالی","مکتب اناث خراسان"
36.71593479,67.13865026,2101030,"کارته صلح ناحیه هفتم","مکتب استاد جاهد"
36.719204918,67.156912832,2101041,"گذر علی چوپان ناحیه دهم مزار شاروالی","مکتب شهید عبد العلی مزاری  2"
36.71042604,67.12696153,2101042,"انستیتیوت نفت و گازناحیه ششم","انستیتیوت نفت وگاز"
36.66783093,66.93153895,2103052,"کود و برق فامیلی ها","مکتب بی بی زینب"
36.70424663,66.95107762,2103053,"قریه کاکا کوت","مکتب کاکا کوت"
36.6657706,67.00513582,2103056,"قریه پل بابو","مکتب غلام محمد شهید"
36.65728069,66.96611752,2103057,"پشت باغ","مکتب صالح محمد"
36.66921338,66.98563354,2103062,"قریه شیخ آباد","مکتب شیخ آباد"
36.41572155,67.18882246,2104274,"قریه شرشر","مکتب شرشر سفلی"
36.73866946,66.89287681,2106149,"قریه رباط","مکتب امیر محمد توخی"
36.75115568,66.8982958,2106151,"مرکز ولسوالی","کلینیک صحت عامه"
36.8331655,66.94018596,2106162,"قریه کولمبو","مکتب کولمبو"
36.90615655,66.91052784,2106163,"قریه دیوالی میدان","مکتب دیوالی میدان"
36.82595595,66.78835042,2106173,"قریه ارغنداب","مسجد ارغنداب"
36.6876157,66.87986969,2106174,"قریه اوف ملیک","مکتب اوف ملیک"
36.38632024,66.88584901,2107244,"قریه قور بقه خانه","مکتب بی بی آمنه"
36.39942851,66.88643168,2107245,"قریه آغا جان","مکتب آغا جان"
36.36404936,66.88052238,2107250,"قریه بابه عوض","مکتب احمد الخضرویه"
36.34903405,66.88051663,2107251,"قریه سر آسیاب","مکتب بی بی مریم"
36.41312523,66.9329974,2107256,"قریه قلند خلیلی","مکتب قلند خلیلی"
36.31602631,66.91434837,2107257,"قریه ای لاتان","مکتب ای لاتان"
36.39270831,66.88757994,2107273,"قور بقه خانه","منزل لعل محمد"
36.64142692,66.90842625,2108211,"قریه میر قاسم جان","مکتب مبر قاسم جان"
36.59627844,66.94397298,2108232,"قریه رباط","مکتب رباط"
36.72690038,66.57765352,2108233,"قریه نوشهرعلی زائ","مسجد نوشهری علی زایئ"
37.02582625,66.77331454,2109133,"قریه تالی گگ","مکتب تالی گک"
36.96468585,66.87380091,2109134,"قریه هاشم آباد وطنی","مسجد هاشم آباد"
37.02871516,66.94331175,2109139,"قریه زادیان","مکتب زادیان"
36.94535127,66.8254389,2109140,"قریه بای مشهد","مکتب بای مشهد"
36.70437375,67.7277756,2110079,"سرهنگ","مکتب نسوان خواجه برهان"
36.71153203,67.68690377,2110080,"خانقاه میزا خیرالدین","لیسه نسوان امین حسین"
36.75380946,66.67056431,2111180,"آق تپه","مکتب ابو شکور بلخی"
36.89589412,66.62354126,2111181,"قریه احمد آباد","مکتب احمد آباد"
36.82546374,66.68034754,2111184,"قریه ارناغه","مکتب ارناغه"
36.89436801,66.70254091,2111185,"قریه آ دینه مسجد","مسجد جامع آدینه"
36.92522358,66.56485238,2111190,"قریه بورلوک","مکتب بورلوک"
36.77254882,66.59436644,2111191,"قریه تیمورک","مکتب بدایع بلخی"
36.76744425,66.70557881,2111201,"مرکز ولسوالی چهاربولک","تعمیر ولسوالی"
36.87782087,66.59314553,2111202,"قریه منگولی","مکتب منگولی"
36.84249054,66.743505,2111206,"قریه شیخ تاش تیمور","مسجد جامع"
36.78573044,66.74912891,2111207,"قریه ملا شاهین","منزل ملا شاهین"
37.17481985,67.32541634,2112109,"قریه جیرتان","مکتب جیرتان"
37.20217915,67.21001137,2112110,"قره هزاره توقی","مکتب تاشگذر"
37.23345408,67.5054935,2113101,"قریه تزلاق","مکتب متوسطه تزلاق"
37.18503166,67.74368254,2113102,"قریه تازه آریخ","منزل حاجی ولی"
37.19529916,67.7200387,2113105,"قریه بوز آریخ","مکتب متوسطه بوزآریخ"
37.19878578,67.67817135,2113106,"قریه قره جه","منزل کریم قریه دار"
36.07968956,66.90077498,2114290,"قریه کشنده بالا","مکتب کشنده بالا"
36.15308457,66.92153775,2114291,"قریه کشنده پایان","مکتب کشنده پایان"
35.8317105,66.73298013,2115313,"قریه بنی گو","مکتب متوسطه عبدالگان"
36.78475052,69.62556305,1801033,"اوچقدق","اوچقدق"
36.90286679,69.68538256,1802038,"خواجه لمتو","مسجد خواجه لمتو"
36.98979419,69.61232873,1802039,"قلعه مامه یی","مکتب قلعه مامه یی"
36.66492815,69.3418959,1804062,"آفاقی","لیسه اتحاد"
36.58588341,69.3587132,1804063,"چله تاش","لیسه منصورشهید"
31.426069541,65.926926358,2703086,"حاجي عزيز کلی","ټي بي سي کلینیک"
31.44977518,65.32078235,2704175,"ټالكان","كمپ ټالكان"
31.4666463,65.25783581,2704176,"موشان","شرعلي كمپ"
31.54288046,65.45488092,2704180,"پنجوايي مرکز","د شمس الدين كاكر مكتب"
31.67175419,65.39819452,2705155,"د ژړي دښت","شپږم كمپ ښوونځي"
31.62737545,65.49932066,2705156,"د ژړي دښت","پنځم كمپ"
30.96608532,66.43391831,2711205,"نوي كلي","د ډاكتر محمد داود كور"
30.98503304,66.41453319,2711227,"بلال آباد","د حاجي كمال الدين كور"
29.78775459,65.64584103,2716196,"شيرشاه","مكتب شيرشاه"
29.58181044,65.07035892,2716197,"كامي","مكتب كامي"
31.58133525,65.65040373,2717064,"شپږمه ناحيه","د ذاكر شریف مكتب"
31.39352192,65.836688262,2718237,"ميراڼو كلي","د پيرمحمد كور"
31.477177611,65.712426147,2718238,"تاجو خان كلي","د كمپ مكتب"
36.53147198,65.79635831,2801025,"ناحیه اول","لیسه افغان تپه"
36.73310635,65.83629619,2801026,"ناحیه چهارم","مکتب متوسطه چهار شنبه"
36.66211309,65.70772241,2801027,"ناحیه دوم","مکتب متوسطه لب جرخراسان"
36.681679035,65.751975004,2801028,"ناحیه چهارم","مکتب متوسطه چوباش کلان"
36.60177472,65.75134211,2801031,"ناحیه سوم","مکتب متوسطه شکرک"
36.61539363,65.76944668,2801032,"ناحیه سوم","لیسه حسن تابین"
36.88280696,66.10100832,2803118,"بکاول ترکمنیه","مسجد بکاول ترکمنیه"
36.84241831,66.10836769,2803119,"الیک رباط","مکتب متوسطه الیک رباط"
36.16901708,65.46201696,2805090,"قوش تبه","مکتب چقمه چقور"
36.30457647,65.48422199,2805091,"قوش تبه","مکتب جرقدوق"
36.91258154,66.1831244,2807038,"ناحیه اول","لیسه نسوان آقچه"
36.9065459,66.18906133,2807039,"ناحیه اول","مسجد ابوبکر صدیق"
36.92369511,66.49247092,2808052,"قریه بالا مردیان","لیسه ذکور بالا مردیان"
36.82281417,66.38579856,2808053,"قریه نور آباد","مکتب متوسطه نور آباد"
36.89846106,66.26745896,2809063,"هندوکش","مکتب ابتدائیه هندوکش"
37.02487299,66.35597865,2809064,"فروک قلعه","مکتب متوسطه فروک قلعه"
36.86096946,66.31164861,2809068,"قریه سالتق","مکتب سالتق"
37.41319326,66.03388355,2810080,"مخدوم قلی فراغی","لیسه مخدوم قلی فراغی"
37.40445102,66.06893117,2810081,"جوی سرای","مکتب متوسطه جوی سرای"
37.345530283,66.192821144,2810082,"قریه شهاب","مکتب متوسطه کوک"
35.97807055,65.38575476,2811096,"مرکز ولسوالی","لیسه ذکور درزاب"
35.97869227,65.39607937,2811097,"مفل","مکتب ابوذر غفاری"
36.02757456,65.48009886,2811102,"قریه تاش جواز","مکتب تاش جواز"
36.64339751,65.76628845,2801011,"ناحیه سوم","لیسه نسوان کوک گنبد"
36.65605427,65.77724422,2801012,"ناحیه اول","لیسه عرب خانه"
36.65051478,65.79870492,2801020,"ناحیه اول","لیسه آلتی خواجه"
36.55976264,65.81236926,2801021,"ناحیه اول","لیسه ذکور قره کینت"
36.75863461,65.63238222,2802112,"چوب باش","لیسه چوب باش"
36.869482016,66.16999784,2803120,"خانقاه ازبکیه","لیسه نسوان خانقاه ازبکیه"
37.06251246,66.06001537,2804072,"سفرولی اول","مکتب سفرولی اول"
37.03736691,65.96813097,2804075,"قوینلی مهاجر","مکتب قوینلی مهاجر"
36.91876332,66.05047808,2804076,"سلطان اریغ","مکتب سلطان اریغ"
37.07302692,65.9458042,2804079,"مسجد قره آدیک","مسجد قره آدیک"
36.06262223,65.37244852,2805088,"قوش تبه","مکتب شیر بیک"
36.88634069,66.22116927,2807042,"قریه لغمانی","مسجد لغمانی"
36.84677491,66.24548547,2807043,"ینداغ اریغ","مسجد ینداغ اریغ"
36.65930437,65.7747411,2801004,"ناحیه اول","لیسه جنرال عبدالرشید دوستم"
36.68300868,65.7574523,2801005,"ناحیه چهارم","لیسه ذکور یکه باغ"
36.91780844,66.15835072,2807044,"ینگی اریغ","لیسه ذکور ینگی اریغ ترکمنیه"
36.88841852,66.15488049,2807045,"بیش کپه سرخ","مکتب بیش کپه سرخ"
36.82390554,66.45631585,2808049,"قریه سانسیز","لیسه نسوان شهید لطیفه حبیبی"
36.787783,66.46061417,2808054,"قریه شیشه خانه عربیه","لیسه ذکور شیشه خانه"
36.84811135,66.52927959,2808055,"قریه میملیک","مکتب متوسطه مملیک"
36.80236166,66.5648053,2808056,"قریه کوشگک","لیسه نسوان کوشگک"
36.77338453,66.50101108,2808057,"قریه گرجک","مکتب متوسطه ذکور گرجک"
36.86140732,66.41299969,2808059,"قریه نصرت آباد","مکتب متوسطه نصرت آباد"
36.94693523,66.26003749,2809061,"قریه جنگل اریغ","مکتب متوسطه جنگل اریغ"
37.0109254,66.23539951,2809066,"قریه  چلیک گنج","مکتب متوسطه چلیک گنج"
36.09054113,65.5214442,2811106,"آقسای","مکتب آقسای"
35.979389936,65.375782515,2811107,"درزاب","مکتب ترکمن قدوق"
36.855724596,66.459936302,2808126,"چهار باغ","لیسه چارباغ"
35.94856963,64.73979583,2901008,"ناحیه نهم","مکتب سربلاق"
35.91522957,64.77917882,2901009,"ناحیه سوم","مدرسه عالی ابو مسلم خراسانی"
35.92529673,64.77063459,2901014,"ناحیه سوم","لیسه مسلکی زراعت میمنه"
35.90736653,64.80351784,2901015,"ناحیه ششم","لیسه نسوان ده سیدان"
36.03524103,64.66497137,2902018,"خواجه ناموسی","مکتب ذکورخواجه ناموسی"
36.84483707,69.84615913,1807094,"ناوان","مکتب متوسطۀ میرحسین ناوان"
36.8640258,69.97050021,1807095,"چارتوت","لیسه حضرت خالد"
36.774088,69.944982,1807097,"مرکزشهر","لیسه نسوان کلفگان"
36.73146449,69.85475268,1807098,"آق بلاق","لیسه ابوعبیده"
36.46439723,69.86498245,1808084,"خسده","چمن خسده"
36.57470223,69.9306241,1808085,"آردیشان","لیسه قانعت شهید"
36.36854362,69.92886236,1808087,"لژده","ليسه لژده"
36.34733375,70.05710539,1808088,"مشتان","مکتب مشتان"
36.62571112,69.81275315,1808090,"کورانی","مکتب مخدوم عبدالله شهید"
36.58058602,69.76858488,1808091,"نهر اب","مدرسه نهر اب"
37.245334,69.83752346,1810108,"سید آباد","مکتب ابتدائیه فیض آباد"
37.32317215,69.72115887,1810109,"کیوان","لیسه حضرت عبدالله ابن مسعود"
37.0548519,69.64643781,1810111,"یامچی","مکتب ابتدائیه یامچی"
37.10650301,69.90581502,1810112,"سر رستاق","لیسه حضرت خلالی"
37.18514997,69.90656391,1810114,"هرازسموج","مکتب متوسطه هرازسموج"
37.16970579,69.97333588,1810115,"سرغار","مکتب متوسطه سرغار"
37.26847506,69.83943842,1810122,"کیشان","مکتب توحید اسلامی"
37.14133788,69.65880156,1810123,"قدق تاجکان","مسجد قدق تاجکان"
36.50850986,69.2155138,1811071,"قشلاق سای","مسجد جامع قشلاق سای"
36.43768124,69.22077728,1811072,"بویرک","مسجد جامع بویرک"
36.31576563,69.39138335,1811074,"دره کلان","مکتب ابتدائیه دره کلان"
36.43851785,69.37841835,1811075,"فخرک","مسجد قندهاری فخرک"
37.16919924,69.5124152,1812174,"نوآباد","متوسطه نوآباد"
36.72665417,69.30362858,1801028,"چینزه یی","مکتب چینزه یی"
36.79743769,69.49737326,1801029,"ترمه بای","مکتب ترمه بایی"
36.76146277,69.53443773,1801030,"قزاق","لیسه عبدالرحمن تالقانی"
36.576813541,69.703216239,1806082,"صد برگان","مکتب صد برگان"
36.75056528,69.94651683,1807100,"زردالو دره سفلا","لیسه محمد حسین شهید"
37.136819,69.41659914,1809054,"جلوم خور","مکتب متوسطه حاجی میزا محمد"
36.92565137,69.38411449,1809055,"هموارسای","مکتب ابتدائیه هموارسای"
37.00993179,69.36678506,1809190,"کشوری","لیسه حسام الدین شهید"
37.14129302,69.7970337,1810101,"شهرجدید رستاق","لیسه حضرت عمرفاروق"
36.96552569,69.7738298,1810116,"قدق جوازخانه","کلینیک قدق جوازخانه"
36.93446413,69.79212202,1810117,"قریه چنار","مسجد قریه چنار"
36.95981788,69.97054678,1810126,"شینگر آب","مکتب متوسطۀ ابوهریره"
37.08291909,69.94942945,1810127,"غنج","مکتب متوسطه مولوی عبدالقدوس شهید"
36.933804094,69.945730308,1810197,"آبزان","مکتب متوسطۀ آبزان"
37.24508,69.47595999,1812201,"عربکاکل","مکتب متوسطۀ عربکاکل"
37.33827908,69.53992667,1814155,"مرکز شهر","لیسه ذکورخواجه بهاوالدین"
37.33687851,69.53044711,1814156,"افغانیه","لیسه امام ابو حنیفه"
37.038918632,69.938795519,1810210,"خواجه خیراب","مکتب متوسطه"
37.025418737,69.765293815,1810211,"دشتک سفلا","مکتب ابتدایه"
36.70589307,68.878826,1901003,"ناحیه پنجم","لیسه غازی خان"
36.72259749,68.87379756,1901004,"ناحیه اول","لیسه فاطمه زهرا"
36.72398589,68.88428099,1901006,"ناحیه چهار","لیسه خواجه مشهد"
36.72394432,68.86837624,1901007,"ناحیه دوم","لیسه عالی شیر خان"
36.7317496,68.96579177,1901028,"قوچی کلان","مکتب قوچی کلان"
36.65954073,68.98337469,1901029,"ملرغی","مکتب نسوان ملرغی"
36.67753118,68.9440444,1901038,"کته خیل","مکتب متوسطه کته خیل"
36.74977559,68.98758546,1901048,"قریه چقر قشلاق","مکتب چقر قشلاق"
36.69805555,68.88341666,1901049,"ناحیه پنجم","مرکز میدیوتیک"
36.69200327,68.7968554,1902114,"مرکز چاردره","لیسه جمعیت"
36.78070283,68.68682829,1902122,"عین المجر","لیسه عین المجر"
36.78242777,68.64747777,1902125,"جمعه بازار","مسجد  جمعه بازار"
36.439059549,69.045039581,1903139,"قریه زنگی سای","مکتب زنگی سای"
36.576103,68.904435,1903140,"قریه پل خشتی","لیسه پل خشتی"
36.57698835,68.8566453,1903209,"قریه میر شیخ","مکتب متوسطه میرشیخ"
36.48289588,68.9198675,1903217,"قریه چیپ","مکتب متوسطه چیپ"
36.48750198,69.11793826,1904150,"قریه چونی","مکتب متوسطه چونی"
36.66545241,69.10770113,1904151,"چهار توت اوریا خیل","لیسه چهار توت"
36.70512121,69.13513209,1904160,"بندی برق","مکتب متوسطه کهنه قلعه"
36.69563012,69.05851833,1904161,"جنگل باشی","لیسه ذکور جنگل باشی"
37.18603908,68.90350455,1905073,"ناحیه سوم مرکز شهر","لیسه نسوان مرکزی"
37.20008673,68.97864311,1905074,"قریه الف بیردی","مکتب الف بردی"
37.19376564,68.76687552,1905200,"مراد شیخ","مکتب متوسطه مراد شیخ"
37.13017502,69.04223763,1905201,"قریه چغر","مسجد جمعه خوانی پائین"
37.03393587,69.24043135,1906178,"مرکز ارچی","لیسه جمهوریت"
37.05068483,69.2657402,1906179,"قریه تاجک قشلاق","مکتب متوسطه قشقری"
36.91752539,69.27934477,1906189,"قریه قره غوشی اوزبکیه","مسجد جامع"
36.87805555,69.21916666,1906190,"گل بلاق","مکتب متوسطه گل بلاق"
37.01114514,68.52304527,1907109,"قوق مسجد","لیسه اتحاد"
37.03714247,68.39715131,1907110,"حلقه کول","مکتب حلقه کول"
36.947773,68.132773,1907112,"باغیچه","مکتب متوسطه باغیچه"
36.92346851,68.54887437,1907113,"ظلم آباد","مکتب ظلم آباد"
36.71288946,68.86304798,1901010,"ناحیه دوم","لیسه حضرت علی"
36.72269586,68.86846013,1901011,"ناحیه دوم","ریاست حقوق"
36.73787679,68.86636625,1901014,"ناحیه سوم","لیسه بی بی عایشه صدیقه"
36.72249638,68.87099521,1901015,"ناحیه اول","ریاست شاروالی"
36.74705784,68.86723702,1901020,"ناحیه سوم","لیسه کهندژ"
36.70317013,68.84858644,1901021,"ناحیه سوم","ذاخیل خمدان"
36.655840985,68.892646491,1901043,"قریه قراق","مسجد جامع قزاق"
36.73083333,68.91916666,1901044,"قریه خزانی","مکتب متوسطه خزانی"
36.35913867,66.91380067,2107262,"قریه زوار ها","مسجد زوار ها"
36.67925041,66.80741523,2108213,"قریه چمتال","مکتب چمتال"
36.64524892,66.87568592,2108214,"قریه سر آسیا ب","مکتب سر آسیاب"
36.68968118,66.6780782,2108221,"قریه قلعه رزاق","مکتب قلعه رزاق"
36.71874996,66.64654328,2108222,"قریه علی زایئ","مسجد نوشار علی زائی"
36.98804151,66.82169871,2109118,"مرکز دولت آباد","تعمیر شاروالی دولت آباد"
36.98692556,66.82017521,2109119,"مرکز دولت آباد","مکتب رابعه بلخی"
36.97283838,67.00618278,2109122,"قریه قره غجله","لیسه ذکور مولانا واعظی"
36.98097094,67.00316007,2109123,"قریه قره غجله","مکتب آناث واعظی"
36.96941651,66.73193726,2109125,"قریه صدر آباد","مکتب صدر آباد"
36.99545135,66.5522439,2109126,"قریه دلبرجین","مکتب دلبرجین"
36.90954875,66.7636778,2109129,"قریه خواله بچگان","مکتب خواله بچگان"
37.00031125,66.75654304,2109130,"قریه حیاتان","مکتب حیاتان"
36.95979943,66.81653969,2109144,"قریه یخدان","مسجد یخدان"
36.95715655,66.84463998,2109145,"پای مشهد افغانیه","مسجد جامع افغانیه"
36.71468987,67.68674702,2110083,"قریه امین حسین","لیسه شهید احمد شاه مسعود"
36.73259354,67.77397422,2110084,"قریه غازی آباد","مکتب متوسطه غازی آباد"
36.78506281,67.68883433,2110094,"قریه ده ورده","مسجد قریه ده ورده"
36.58631829,68.0649628,2110096,"قریه خوشتوت","مکتب متوسطه خوشتوت"
36.754114,66.74931222,2111195,"ژنگورۀ وطنی","مکتب سکندر خیل ژنگوره"
37.29857827,66.47382707,2112114,"قریه اسلام علیا","مکتب اسلام علیا"
37.34843839,66.97226293,2112115,"قریه جوی وکیل","کلینیک جوی وکیل"
35.773908401,66.959255843,2114295,"قریه واخشک","مکتب واخشک"
35.96665403,66.88340723,2114296,"قریه قره بای","مسجد قره بای"
35.81957717,66.64924657,2115306,"قریه بخت گان","مسجد بخت گان"
35.79864902,66.65655685,2115307,"قریه بازار کهنه همرخ","مکتب بازار کهنه"
35.97729811,66.712397889,2115308,"قریه نوآباد بلوچ","مکتب میرهاشم"
35.737647126,66.664744262,2115309,"قریه مرغزار","مکتب امام حسن"
35.86633564,66.79616272,2115317,"قریه فولاد","مسجد هزار پیمانه"
35.71117501,66.73298269,2115318,"قریه بام شاخ","لیسه خاتم الانبیا"
34.87356121,65.30353115,2301018,"کاشکک","لیسه تحت غلمین"
35.03999785,65.85197676,2301023,"آب ریم","زمین زراعتی عبدالحق"
34.28206278,65.55135784,2301024,"پهلو سنگ","قلعه نادر خان پهلو سنگ"
34.56424449,65.36159133,2301028,"قطس سفلی","مکتب متوسطه قطس سفلی"
34.87349369,65.24894707,2301029,"دربند","مکتب ابتدائیه صد من غلمین"
34.88362632,65.44099928,2301045,"غار سیا گک","تعمیر حسن"
34.6045462,64.81949201,2301235,"بره خانه","میدان بره خانه"
33.88372044,64.90466557,2302100,"چشمه سفید","منزل محمد یعقوب"
34.27261155,64.88174259,2302101,"گله اسیاب","بازار گله آسیاب"
34.4074557,64.80037387,2302108,"سلمین","مکتب سلمین"
34.55552929,65.78680996,2303046,"مرکز دولت یار","مکتب دولت یار"
34.63458067,65.91717699,2303047,"جوی نشر","مکتب پشته نور"
34.52478221,65.66050378,2303049,"شینیه","مسجد جامع شینیه"
34.58221754,65.7166036,2303050,"شرشر","مسجد جامع خیرالله"
34.66676784,65.83823426,2303052,"قریه سمک","خیمه بازار سمک"
34.43509059,65.86803751,2303053,"نرم ته","مسجد نرم ته"
34.44121009,65.67075304,2303057,"لوکه مزار","مسجد لوکه مزار"
34.66988765,65.73594199,2303058,"اولاد قدم","مکتب جیره"
35.14103838,64.95196839,2304059,"مالمنج","منزل محمد ابراهیم"
35.03095756,65.0722261,2304060,"خفک","مسجد جامع خفک"
35.03931853,65.18763308,2304063,"ده حاجی","مکتب ده حاجی"
35.17707778,65.1315262,2304064,"قله گوهر","لیسه قلعه گوهر"
35.17950238,64.89881573,2304071,"کنداخ","باغ حبیب الله"
33.57960026,65.0634923,2305111,"بازار سنگان","مکتب سنگان"
33.70155416,65.10444131,2305114,"قریه کله گی","خیمه بازارکله گی"
33.69216423,64.848727,2305118,"قریه شینکوت","خیمه بازار کهنه شینکوت"
31.56609036,61.669087743,3309099,"دیوالکها","مکتب متوسطه دیوالکها"
31.58175551,61.4925271,3309100,"دومبلی علیا","مکتب ابتدایی دومبلی علیا"
31.53374694,61.4677033,3309103,"قوچ","مکتب متوسطه قوچ"
31.78028705,61.62042119,3309104,"چار گاواک","مسجد علیا چار گاواک"
32.36831305,62.07623693,3301034,"باغ پل","لیسه اناث"
32.35572093,62.10462594,3301035,"قلعه محمد","مسجد قلعه محمد"
32.49169223,62.13953171,3302042,"چین فارسی","لیسه خواجه عبدالله بیدار"
32.51396093,62.1266819,3302043,"قریه دوکین","مکتب ابتدائیه  دوکین"
32.44085307,62.06173023,3302234,"شهر کهنه","مسجد شهر کهنه"
32.16375788,61.74648794,3305240,"حوضک محمد اسلم","مکتب حوضک محمد اسلم"
32.62086967,62.42233778,3306127,"گرانی","مکتب ابتدائیه گرانی"
33.78655058,64.8814651,2305119,"مرکز نو رک","مکتب ابتدائیه نورک"
34.29115912,64.39221649,2306089,"قریه یکه سنگ","مکتب یک سنگ"
34.46017858,64.54532989,2306090,"پله سرخک","مکتب بیدان"
34.459791,66.04347148,2307137,"قریه دهن باریکی","مکتب قزل"
34.45425827,65.94952516,2307138,"قریه سری نوده","مکتب گرم آب سفلی"
34.55538971,66.12465571,2307153,"قریه دیوکان","مکتب بیخ سنگ"
34.42040414,66.35861918,2307154,"قریه اسد آباد","مکتب سری دیوالک"
34.58484828,66.04356804,2307158,"سنگ زرد","مکتب سنگ زرد"
34.48657423,66.34146456,2307159,"قلعه شکرکی","مسجد قلعه شکرکی"
34.7300598,66.2061091,2307172,"قریه سنگ پولک","مکتب غیغانک"
34.5722086,66.21421912,2307173,"شینیه هیگل","مسجد شنیه هیگل"
34.51962011,66.01518937,2307177,"قریه سرسوخته","مسجد سر سوخته"
33.52450558,64.41814755,2308209,"پس قلعه","لیسه پس قلعه"
36.06989894,66.29019732,2204047,"قریه باغ اسحق","مسجد جامع قریه باغ اسحق"
35.96487932,66.36867878,2205106,"قریه گل خانه تفایخور","مکتب متوسطه عرفان"
35.95968159,66.44215851,2205111,"قریه فرشقان کلان","مسجد جامع چنار"
36.01072321,66.39752112,2205116,"ارچه تو","مکتب ابتدائیه ارچه تو"
35.73040866,66.36859865,2205121,"قریه پشته کبود آب","مسجد کبود آب"
36.06651494,66.57553751,2206124,"مسجد جامع قریه شیکیار","مسجد جامع قریه شیکیار"
35.7682304,66.56350641,2206132,"قریه آبدره","مسجد قریه آبدره"
34.32874465,65.40862607,2301005,"گنجک","مکتب زرتلی"
34.2057611,65.40259383,2301006,"قیبی دهنه شور قل","بازار قیبی"
33.58988278,64.26253579,2308211,"عاشقان","مکتب عا شقان"
33.57948062,64.15545811,2308212,"لارقه","منزل عبدالله لارقه"
34.67500197,65.00104257,2301012,"شوره زار","منزل لعل محمد"
34.52073045,65.48809266,2301013,"باد گاه","لیسه نسوان بادگاه"
34.71326514,64.81748049,2301034,"سنمای رخنه سفید","مسجد سنمای رخنه سفید"
34.55458393,64.65098401,2301035,"غلامان","مکتب غلامان"
35.1751676,65.05918863,2304069,"مسین","مسجد جامع مسین"
34.26801824,64.11548882,2306083,"ناسفنجی","مکتب ابتدائیه ناسفنج"
34.36665361,66.16168708,2307143,"قریه پیشبند بالا","مکتب جو قل"
34.41086544,66.23578037,2307144,"قریه قولانی","مکتب قولانی"
34.51949802,66.34112402,2307147,"قریه رشک","مسجد جامع رشک"
34.46095482,66.52105273,2307148,"قریه سیا سنگ","مکتب سرای کرمان"
33.24331259,64.41245297,2308215,"درز آب","مکتب نیلی"
33.61982457,64.4729016,2308216,"خم پای حصار","مکتب خم پای حصار"
33.46522637,64.23193105,2308223,"یگین","منزل سید علاوالدین"
33.17906012,64.33476514,2308227,"زرنی","مکتب متوسطه زرنی"
35.216059952,64.769593198,2301031,"حوض صا لح","حوض صا لح"
34.444350772,64.859652245,2302104,"خواجه گان","باغ فضل احمد"
34.39352751,64.69357218,2302105,"رزقان","منزل ارباب سخی"
34.00716375,64.85495172,2302110,"چهل گزی","مسجد سرچهل گزی"
35.1918517,64.87965093,2304066,"پس ارچه","منزل نجیب الله"
33.70256215,65.19422547,2305129,"بازار دهن پشته روق","مکتب دهنه دیوالک"
34.15309857,64.07092777,2306078,"دهنه حصار","مکتب دهن حصار"
34.38438752,64.34763666,2306079,"کمنج","مکتب اناث"
34.5055969,64.09427826,2306086,"برزو","مکتب ابتدائیه برزو"
34.35146229,64.26494728,2306087,"مرغه","مکتب ابتدائیه مرغه"
34.39251319,65.99943691,2307140,"قریه قلعه سنگ شانده","مکتب سنگ شانده"
34.57898409,65.9320289,2307156,"قریه دهن لکه سنگ","مسجد دهن لکه سنگ"
34.6645587,66.02642683,2307161,"قریه کته چشمه","مکتب کته چشمه"
34.57021543,66.59280065,2307168,"شنیه سفید اب","مسجد شنیه سفید اب"
34.61036941,66.55703029,2307169,"تگاب سعید","مسجد تگاب سعید"
34.46903092,66.46968251,2307175,"قریه تالتو","مکتب تالتو کرمان"
33.99119319,63.90040867,2309181,"دهن گلدان","مسجد دهن گلدان"
33.97656562,63.72614579,2309182,"کبوتر خان","مکتب ابتدائیه کبوتر خان"
33.54298048,63.46830262,2310199,"دیله","باغ دیله"
33.853533123,63.972337786,2310200,"دهن دوتائی","مکتب دهن دوتایی"
33.67354458,63.89883358,2310201,"مناک سفلی","مکتب متوسطه مناک سفلی"
33.64255038,63.5970147,2310204,"آخری","مکتب متوسطه آخری"
33.78979922,63.98685635,2310205,"زیرتنگی","مسجد زیرتنگی"
33.74388019,66.32841832,2402015,"شینیه حیدر بیگ","مسجد شینیه"
33.67066782,66.60552723,2402016,"پالیچ","مسجد پالیچ"
33.64992188,66.26024213,2402024,"شالج","مسجد شالج"
33.60942849,66.58585862,2402025,"اشکرآباد","مسجد اشکرآباد"
36.14920994,66.0283413,2201027,"قریه قشقری","مکتب قریه قشقری"
36.10334154,65.90595251,2202051,"تربلاق","مکتب متوسطه تربلاق"
36.0969887,65.7058002,2202052,"قریه دره بند","ملکیت مسجد دره بند"
35.99268518,65.79474113,2202057,"میرزا ولنگ","مکتب متوسطه میرزا ولنگ"
35.91189592,65.88383982,2203062,"نگاله","مسجد جامع نگاله"
35.83589729,65.89634291,2203063,"سر ده","مسجد جامع سر ده"
35.86624099,66.33688544,2205103,"قریه سبز","مسجد جامع مسجد قریه سبز"
35.8968961,66.35143747,2205104,"قریه توپخانه","مسجد جامع قریه توپخانه"
35.8593959,66.44255611,2205113,"چارو علیا","مسجد جامع چارو"
35.93637667,66.45884443,2205119,"فرشقان میانه","مسجد فرشقان میانه"
36.05550148,66.4097305,2205120,"لرک افغانیه","مسجد رستم قریه‌دار"
35.86972977,66.48618482,2206129,"قریه شاه مرد","مدرسه قریه شاه مرد"
35.91086629,66.52368167,2206130,"قریه کران","مدرسه قریه کران"
36.00027945,66.53189742,2206134,"الغن افغانیه","مسجد جامع الغن افغانیه"
35.30891734,66.40347416,2207097,"زوج","مدرسه زوج"
35.67001757,66.60898963,2207098,"شیخ منگ","مدرسه باجگاه"
35.66846562,66.56947356,2207100,"پیتاب","مکتب متوسطه پیتاب"
34.52115061,65.25869389,2301001,"تحت شهر","لیسه سلطان علا والدین غوری"
36.22578867,65.93437488,2201003,"قریه رحمت آ باد","لیسه رحمت آباد"
36.21489948,65.9493037,2201004,"قریه امام خورد","لیسه امام یحیی"
35.76667834,65.77179256,2203065,"قریه ده سرخ","لیسه همت ده سرخ وپس نی"
36.02450553,66.23491332,2204036,"گورکاب علیا","مسجد جامع گورکاب علیا"
36.00471307,66.22241207,2204037,"تنزیل","مسجد جامع تنزیل"
35.88455294,66.14349231,2204041,"خانقاه","مکتب متوسطه نسوان خانقاه"
35.95484356,66.51863414,2206136,"قریه یولتراب","مکتب متوسطه نسوان یولتراب"
35.65852671,66.91759075,2207087,"تگاب تخت","مدرسه تگاب تخت"
35.4636563,66.79544838,2207090,"دو شاخ","مکتب دوشاخ"
35.57724984,66.71674994,2207091,"جورازی","لیسه طلوع جورازی"
35.45935187,66.44140698,2207094,"پای زیارت","مسجد جامع پای زیارت"
35.41564898,66.33172895,2207095,"پیغوله","مدرسه پیغوله"
35.875472772,66.124362818,2204140,"قریه ملک ازبکیه","مکتب"
36.039848479,66.373931824,2205142,"خواجه سرخ","مکتب خواجه سرخ"
36.091067853,66.666373394,2206143,"چغدان","مسجد"
36.28150717,65.87225272,2201008,"قریه کورک اوزبیکیه","مکتب متوسطه کورک اوزبیکیه"
36.17798779,66.07767318,2201009,"قریه بغاوی اوزبیکیه","مکتب متوسطه بغاوی اوزبیکیه"
36.34297924,65.89139495,2201010,"قریه قوش تپه","لیسه قوش تپه"
36.23309756,66.17719715,2201020,"قریه قدم جایی","مدرسه قدم جای"
36.14023822,65.83224888,2202048,"ملا سخیداد","لیسه نسوان ملا سخیداد"
36.18022533,65.85870416,2202049,"انگشکه","مکتب متوسطه انگشکه"
36.03979421,65.64685523,2202053,"قریه قره خوال","ملکیت مسجد قره خوال"
36.00950696,65.54751382,2202054,"قریه شاه توت","مدرسه قریه شاه توت"
35.54631387,65.56829456,2203069,"مدرسه قلعه شهر","مدرسه قلعه شهر"
35.52415506,65.55233503,2203070,"نوآباد قلعه شهر","مسجد حاجی ملا قربان"
35.28273861,66.19626033,2203082,"شینهَ سفید میدان","لیسهَ آزادی"
35.13366593,66.23395703,2203083,"دهنهَ کاشان","لیسهَ شهید مزاری"
36.11104887,66.28385007,2204043,"سبزی کلان","مسجد جامع سبزی کلان"
34.45342651,65.1207597,2301008,"تغه تیمور","مکتب تغه تیمور"
34.60099389,65.29291044,2301009,"سر پل کاسی","مکتب کاسی علیا"
34.64503323,64.92134177,2301017,"لشاره سفلی","زمین عبدالاحمد"
33.865881244,65.840845552,2405183,"رنگ درخت","مدرسه"
33.4289057,65.838021977,2406184,"سر باغ کیسو","مسجد"
33.482172302,65.69132907,2406185,"تجریب","مسجد"
33.48991363,65.7603058,2406143,"هوشی","مسجد هوشی"
33.8361289,66.92274098,2407144,"تیورسل","مسجد اورلک"
33.57957573,65.7319024,2406129,"شینه کیتی","مسجد شینه کیتی"
33.68892001,65.618818814,2405180,"چاغان","مکتب"
33.891592349,65.908072577,2405181,"خربید سرقول","مسجد"
33.69642324,66.14335153,2401007,"سنگ موم","مسجد سنگ موم"
33.75897298,66.15224204,2401008,"دشت","مسجد جامع دشت"
33.54324787,66.61681736,2402035,"آشو غولکه","مسجد آشو غولکه"
33.67146809,66.08165481,2403109,"وگیر","مسجد صاحب زمان وگیر"
33.4707791,66.12831695,2403110,"چلزی","مکتب بازار چلزی"
33.36589848,66.01680647,2403114,"سهور تگاب دار","مسجد سهور تگاب دار"
33.98332047,66.37603146,2404036,"سیاه ناورعبدی","مسجد سیاه ناورعبدی"
34.02964707,66.50461421,2404037,"پیرستان","مسجد سفید سنگ"
34.289447601,66.523270044,2404042,"گم آب","مسجد گم آب"
33.95999533,66.29132915,2404043,"لوران خوشک","مسجد لوران خوشک"
33.92720075,65.91978829,2405088,"خدیر سفلی","مسجد خدیر سفلی"
33.82363892,65.70597798,2405089,"شکردره","مسجد شکردره"
33.80223138,65.66240424,2405091,"دستنی","مکتب دستنی"
33.75145633,65.68336159,2405092,"قریه بزی","مسجد قریه بزی"
33.7296933,66.79247481,2407146,"اسکان","مکتب اسکان"
33.8877444,66.8711677,2407147,"سرخ جوی","مسجد سرخ جوی"
33.8516617,67.14600031,2407154,"پتاپ جوی","لیسه زکور وطنه"
33.87642714,67.29941134,2407155,"شینیه نیک","مسجد شینیه نیک"
33.77585948,67.05414139,2407157,"شینیه برکر","مکتب شینیه برکر"
33.70275132,66.95718975,2407158,"اشتو","مسجد شینه اشتو"
33.97174462,66.60367713,2407166,"گرگی","مسجد قریه گرگی"
33.85756736,67.05045427,2407167,"دو جهان","مسجد دو جهان تیکان برکر"
34.20791122,66.1804537,2408074,"شینیه قرامت","مکتب شینیه قرامت"
34.11891857,66.07943836,2408075,"شیخ علی","مسجد قلعه سنگی"
34.03836363,65.62905408,2408079,"سیاه چوب","مکتب بازار سیاه چوب"
34.10876096,65.71669634,2408080,"شینیه لیس","مسجد شینیه لیس"
33.23277331,65.46505128,2409059,"لاغر جوی","مکتب لاغر جوی"
33.22924569,65.69176758,2409060,"باغبان","مسجد باغبان"
33.23698359,65.59533175,2409070,"سليمان آباد","مسجد سليمان آباد"
33.32862255,65.72167609,2409168,"هفتاد نفر","مسجد هفتاد نفر"
33.84077196,66.02443966,2401003,"شیش","مکتب شیش"
33.8866269,66.16112607,2401004,"پیشوک","مسجد بازار پیشوک"
33.69695559,66.17854221,2401012,"پای نیلی","مسجد پای نیلی"
33.6686245,66.43822593,2402013,"ورس، سرخ کیجی","مکتب ورس"
33.69570692,66.54928033,2402019,"اولقان","مسجد اولقان"
33.8886167,66.39620431,2402020,"تگاب لرگر","مسجد تگاب لرگر"
33.73795337,66.63039011,2402030,"تگگ","لیسه تگگ"
33.80847717,66.61570275,2402031,"فیض آباد","مسجد فیض آباد"
34.25157577,66.30810555,2404046,"جنگان کلان","مسجد قلندران"
34.21823835,66.34967862,2404047,"جنگان خورد","مسجد ایل صافی"
34.1846229,66.28569855,2404052,"چکه جنکان","مسجد چکه جنکان"
34.03260385,66.27536504,2404053,"سرخ جوی","مسجد سرخ جوی"
33.90424922,65.76879382,2405095,"غم قل","مکتب دهن غم قل"
33.88531186,66.05138915,2405096,"پیتابک","مکتب پیتابک کورگه"
33.7820898,65.87878633,2405100,"تخت کیان","مسجد تخت کیان"
33.9989494,65.7863709,2405101,"شلغم","مکتب قرب علی"
33.64543306,65.78115505,2406126,"کهنه ده","مدرسه کهنه ده"
33.63642963,65.7052117,2406127,"کاروان سرای","مسجد کاروان سرای"
33.41126712,65.7702395,2406139,"شروع کیسو","مسجد شروع کیسو"
33.53448614,65.73272946,2406140,"مونمی","مسجد مونمی"
33.67396683,66.91081256,2407161,"ندک","مسجد تی جنک"
36.85171182,68.7147415,1901025,"قریه توبره کش","مکتب توبره کش"
36.79462406,68.88841092,1901026,"تیموری آلچین","مکتب تیموری آلچین"
33.94866866,66.76181876,2407162,"سیاه بومک","مسجد سیاه بومک رباط"
33.88388162,66.500231271,2402173,"سفید پشته لرگر","مسجد"
33.806664976,66.709412969,2402174,"غاف","مسجد"
33.845345012,66.265259451,2402175,"غیبی","مسجد تگاب غیبی"
33.38038757,66.26317942,2403117,"قریه چونی","مسجد بازار چونی"
33.91461772,65.94492796,2405085,"خدیرعلیا","مسجد شینیه خدیرعلیا"
34.03569733,65.91929767,2405086,"دهن سای پسی بند","مکتب دهن سای پسی بند"
33.65778379,66.85698672,2407163,"تقمان دره، میرغلام","مسجد زسپه تقمان دره"
33.79113795,67.01443308,2407164,"دهن شهرک، تی برکر","مسجد تی برکر"
34.26387995,66.13526031,2408071,"دهن قرغان پائین","مسجد جعفریه بازارسنگ تخت"
34.28226066,66.07140697,2408072,"شینیه چکه","مسجد شینیه چکه"
34.27275754,65.87733785,2408076,"سیاه خرک","مکتب بازار سیاه خرک"
34.18860929,65.81678949,2408077,"سلبیتو","مکتب بازار سلبیتو"
33.20630388,65.46905046,2409054,"بلاغ","مسجد جامع بلاغ"
33.20917796,65.52496207,2409055,"صوف","مسجد جامع بوکه صوف"
33.63923501,65.75762185,2406134,"شالیزار","مسجد شالیزار"
33.43086617,65.80445621,2406135,"دشت کیسو","مسجد دشت کیسو"
33.42131996,65.84716315,2406137,"غوتله","مسجد غوتله"
32.776587574,65.916495568,2501050,"سجاول","مکتب سجاول"
32.62509329,65.45593432,2502040,"بازار دهرواد","د نجونو لیسه"
32.73065928,65.4748798,2502042,"چتو","مكتب چتو"
32.86135687,66.04271683,2503017,"کلینیک زنانه مرکز ولسوالی","مكتب زنانه دینار خیل"
32.846936708,66.050539928,2503018,"قلعچه بازار","مکتب قلعه راغ"
32.920317039,66.013779994,2503020,"قلعه راغ","د اويانو مكتب"
32.73883897,66.28177016,2506046,"چنارتو","کلینیک زنانه"
32.61809279,65.82220318,2501006,"قریه تالانی","مکتب متوسطه تالانی"
32.58730555,65.957,2501007,"گرم اب","مکتب گرم اب"
32.68611167,65.8830093,2501011,"پیروشه","مسجد مدرسه پیروشه"
32.73398382,65.90733,2501012,"قریه سرخ مرغاب","لیسه شاه حسین"
32.939945,65.564029,2504030,"بازار چهارچینو","لیسه مرکزی بازار چهارچینو"
32.94304256,65.56377844,2504031,"بازار چهارچینو","کلینیک زنانه بازار چهارچینو"
32.10349824,66.91388327,2601002,"هواشناسی","شیخ متی لیسه"
32.10699395,66.91609981,2601003,"نوی رساله","کنډک مکتب"
32.19259439,67.01802085,2601008,"سپينه غبرګه","سپينه غبرګه مدرسه"
32.0824005,66.87705355,2601009,"خرواريان کلي","د حاجی الله داد مسجد"
31.89322648,66.5227827,2602029,"فولادګۍ","مكتب غيشي رباط"
32.05792463,66.72946306,2602030,"خیشکی کلی","د حاجی ښادی خان کور"
31.97093948,67.0379149,2603033,"سيوري","د سیوری( شینکې) ولسوالي دفتر"
32.51981393,67.41391912,2606010,"شاه جوی","بابا هوتك ليسه"
32.47751681,67.3764111,2606014,"کرباغی","کرباغی مکتب"
32.11466272,66.91530493,2601005,"سينك","ليسه سينك"
32.10074875,66.89370716,2601006,"نوي كلي","چوڼي مكتب"
32.00536025,67.4830004,2609042,"لوړګی","عمومی مکتب"
32.20409758,67.63875802,2609043,"مرکز ولسوالی","كلينیك ولسوالي"
31.56277777,67.61611111,2610038,"ډګر جنګی","د جنګی برج مسجد"
32.01677998,67.74406898,2610039,"سين زائي","سین زايی مکتب"
32.110215523,66.91446329,2601050,"رساله","مکتب نسوان رساله"
31.906913215,66.573372539,2602051,"محمد زی کلی","مسجد محمد جان کلی"
32.026882685,67.111875599,2603053,"بدین","مدرسه زیارت"
32.575642287,67.481234788,2606070,"شوبار،قیوم کلی","مکتب قیوم کلاه"
31.79946917,66.32468242,2602026,"دولسوالی مرکز","د هلكانو مكتب"
31.80171793,66.32492155,2602027,"دولسوالی مرکز","د نجونومكتب"
31.62244711,65.70268177,2701005,"شپږمه ناحيه","ميربازار مكتب"
31.63939867,65.72299555,2701006,"لسمه ناحيه","قومي منځني ښونځي"
31.621283,65.73046173,2701040,"څلورمه ناحيه","ميرويس نيكه لیسه"
31.64059597,65.70153099,2701042,"نهمه ناحيه","شهيد عظيم الله ښوونځي"
31.7398762,65.70043481,2702102,"شين اوليا","مكتب شين اوليا"
31.71188923,65.65458503,2702103,"دوراهي","د جلا اور مكتب"
31.6873428,65.60953264,2702107,"مناره","مكتب مناره"
31.64907262,65.58540293,2702108,"ناګهان","خوشحال خان مكتب"
31.47412105,65.9709932,2703074,"نوي ده","د سيد محمد كور"
31.572936,66.04034782,2703075,"مدزي","پخواني مكتب د حاجی سلطان محمد اکا کور"
31.54306135,65.45551939,2704185,"ټي بي سي","د نجوني مكتب"
31.55029324,65.46399049,2704186,"چهل غور","مكتب چهل غور"
31.43922059,65.31551355,2704189,"ټالكان کلی","د ټالکان کلی مكتب"
34.49676374,69.09801223,0101260,"قریه ده قابل","مسجد سنايي"
34.49747357,69.08699278,0101280,"قلعه سلطان جان","مسجد میرسیدعلی یخ سوز"
34.56944444,69.1625,0101296,"جکشن برق خير خانه","متوسطه نمبر ۲ خواجه بغرا"
34.52997563,69.26938616,0101313,"هالو خيل","مکتب متوسطه هالو خيل"
34.663543852,69.272798717,0101508,"شهرک محمدیه","لیسه شهرک محمدیه"
34.53315146,68.98042099,0102409,"کاريزک","ليسه حضرت خالد بن وليد"
34.42428806,69.12548831,0103494,"ریشخور","مکتب ابتدائیه ریشخور علیا"
34.57290983,69.39915005,0105470,"پل چرخي ٢","لیسه صلح"
34.3546893,69.17569377,0107435,"قلعه جانان، ده کلان","مسجد قلعه جانان"
34.36873804,69.42253445,0109445,"زندان","مکتب متوسطه ولي خان"
34.82095706,69.08759042,0113375,"قبر ملک","لسیه شهید احمد شاه مسعود"
34.57699678,69.73560063,0115476,"دره حصاره","مسجد جامع دره حصاره"
35.03855431,69.37047394,0201007,"کره تاز","لیسه نسوان"
35.01664767,69.29947765,0201008,"ده بابی","منزل مولوی غلام ایشان"
35.11632865,69.41014102,0203068,"آرام کوت","مسجد محمد عمر خیل"
35.0904472,69.32830197,0204037,"ملاخلیل","مسجد ملاخلیل"
31.45634205,65.27060519,2704190,"موشان","د بازار مدرسه"
31.67057505,65.36432778,2705149,"ژړي دښت کلی","اول كمپ خیمه"
31.59774157,65.50963058,2705150,"عاشقه","مكتب عاشقه"
31.53098485,65.39318419,2705160,"سبلاغي","د امان الله مكتب"
31.62213409,65.52713516,2705161,"سنځري","د جاجي لالا د تیلو پمپ"
31.90385895,65.49351383,2707121,"اروق شاه خان","د حاجي قيوم ميلمستون"
32.07841071,65.17564375,2709130,"پيرخادم","مسجد پيرخادم"
32.42136393,65.65759441,2712263,"نيازو خيل","د ولسوالي مركز"
32.41962007,65.67159114,2712264,"چوپاني","د حاجي اغالالا كور"
31.64940853,67.17797326,2715254,"د ولسوالي مركز","د ولسوالي مركز"
31.34158915,67.32400657,2715255,"ساليسون","د حاجي منان كور"
31.48632695,67.03522199,2715257,"اوبتو كلي","د اوبتو مكتب"
31.36849267,67.76578998,2715258,"اعلي جرګه کلی","مسجد اعلي جرګه"
31.62359614,65.69651096,2701010,"شپږمه ناحيه","د عينو منځني ښوونځي"
31.6181172,65.7126059,2701012,"څلورمه ناحيه","پخواني ولايت"
31.61567499,65.64720464,2701022,"شپږمه ناحيه","د ميرويس ميني اناث مكتب"
31.62114067,65.76504105,2701023,"عینو مینه","د سيد جمال الدين لیسه"
31.61771754,65.6107392,2701061,"كوكران","د يتیمانو مكتب"
31.6183483,65.83629141,2701062,"لسمه ناحيه","اميرلالي هوټل"
31.73407696,65.72564015,2702109,"محمد یعقوب قلعچه","مكتب محمد یعقوب قلعچه"
31.65820728,65.65779807,2702110,"بابا ولی صاحب","پخواني ولسوالي بابا ولی صاحب"
31.6134289,65.57770777,2702113,"باغ پل","باغ پل هوټل پارک"
31.78014096,65.7466871,2702114,"خانه ګرداب","مدرسه خانه ګرداب"
31.64569559,65.9473361,2703083,"اعظم قلعه","مكتب اعظم قلعه"
31.490184055,65.875274347,2703084,"حکیم جان کلاچه","فارم ترنك مكتب"
31.36110229,65.44812416,2704193,"مارغر","د تربيوي مركز منطقه"
31.56071513,65.53871174,2704194,"كاريز كلي","مسجد صالحان"
31.54902085,65.31836114,2705163,"حوض مدد","زوړ كلينيك"
31.55722354,65.40918084,2705164,"پاشمول","اسد سور مكتب"
31.96879479,65.96801075,2706089,"ويان","كلينيك ويان"
32.07574627,66.02687838,2706090,"باغتو","د حاجي فاياب كور"
32.02147762,66.06644177,2706091,"داڅكزو سوزني","د سفع الله كور"
31.94826795,66.02799602,2706092,"بورګي","د ملك سلام كور"
32.16932389,66.04625696,2706095,"شاه توت","د فضل كرم مسجد"
31.98671283,65.60199657,2707118,"ناصر","مكتب ناصر"
31.98600713,65.47167655,2707124,"خاک ریز کلی","د خاکریز کلی كلينيك"
31.56294971,66.58508825,2708246,"خوګياڼي","محمد نيكه مكتب"
31.6940352,66.7329135,2708247,"سپين اګره","مسجد سپين اګره"
31.38476271,66.54681623,2708252,"تيسان كلي","مكتب تيسان كلي"
31.33292331,66.58131426,2708253,"بالا ژړه","دټيسن كلي مكتب"
31.74779912,65.12994252,2710137,"ميوند چنه","د شهيدانو مكتب"
31.63745174,65.03081805,2710138,"سفوزي انجران","د محمد يوسف كور"
31.50780448,65.23264025,2710144,"ميراب خور","د سردار اسد كور"
31.6226324,65.05610836,2710145,"د ولسوالي مركز","د ولسوالي مركز"
31.80142529,65.06197733,2710148,"د بلوڅ حاجي امان الله كلي","د بلوڅ حاجي امان الله كلي د باوړي سره"
30.99102689,66.41408787,2711203,"د حاجي رازق كلي","د حاجي رازق ميلمستون"
30.97136213,66.41691556,2711208,"بولدک ويش","د حاجي احمد شاه ماركيټ مکتب"
31.09279945,66.44213304,2711209,"بامبول","مدرسه بامبول"
31.00904248,66.39986734,2711212,"سپين بولدك","قاضي مدرسه"
31.002958,66.39174875,2711213,"حاجي افضل كلي","ملياد عليزي"
32.41381515,65.65213232,2712267,"ګوردنګ","د حاجي ميرزا جمال كور"
32.41398586,65.75547667,2712268,"قريه كنده","وهاب خيل مكتب"
30.17954185,65.99435898,2714199,"تورزي","د ولي محمد خان كور"
30.13752704,66.00318497,2714200,"ابوزي","د فيض محمد كور"
31.57355926,65.70954999,2717004,"ډنډ ولسوالي","د حاجي بابا ميلمستون"
31.58191418,65.64597159,2717011,"ډنډ ولسوالي","د رواڼي منځني ښوونځي"
31.58284707,65.6818364,2717021,"ډنډ ولسوالي","بلدي منځني ښوونځي"
31.54897458,65.72178756,2717051,"چپلاني","مکتب چپلاني"
31.32015694,65.962931981,2718231,"شګه","د ولسوالي مرکز"
31.323333613,66.20142877,2718232,"مددخان كلي","مدد خان مكتب"
31.32856132,66.167359533,2718233,"مددخان كلي","كلينيك مددخان كلي"
31.181683036,65.979612295,2718234,"حسن زي","مكتب د سړك پرهغه غاړه"
31.113953821,66.046446971,2718235,"حاجي محمد خان كلي","د حاجي محمد خان کلي مكتب"
31.29422926,65.97900134,2718236,"حاجي مهمند كلي","د حاجي مهمند د كلي مكتب"
31.05686727,66.01944899,2718239,"امير خان كلي","د معلم سعدالله د مکتب په خيمه كي"
31.458441137,65.550920808,2718240,"تنګي کلی","د تنګی کلی روزد ته نژدي خیمه"
31.62127597,65.74654757,2701058,"كارته معلمين","شهيد عبدالاحد خان كرزي لیسه"
31.60097461,65.676999,2701063,"اوومه ناحيه","د عبدالهادي داوي منځني ښوونځي"
31.722425,65.67305838,2702099,"بابر","د غازي محمد اكبر خان مكتب"
31.44772126,65.91205328,2703070,"ډالی کلی","د حاجي سيف الله تیلو پمپ ډالی مکتب"
31.61645477,65.97863744,2703072,"نجوي کلی","د لطیف آغا مکتب"
31.58322218,65.80766527,2703085,"پنځمه ناحيه","د حاجی انفیا کلاچه/ښوراندام مرکز"
36.04493734,64.654321,2902023,"خواجه ناموسی","مکتب اناث خواجه ناموسی"
35.53557283,64.80595251,2902024,"تیلان","مسجد تیلان"
35.64062794,64.97846193,2902028,"میرقاسم گلیم بافت","مدرسه میر قاسم"
30.245990361,62.163891776,3404064,"اشکنک حاجی جمعه خان","مکتب اشکنک"
34.589477723,69.157910511,0101304,"پسته کچالو","مدرسه تعلیم القران بی بی فاطمه زهرا"
33.14646574,68.75550053,1201019,"کوتوال","ښوونځی"
33.27073416,68.85914995,1202028,"زړه قلعه","زړه قلعه مرکز ولسوالی"
32.85254807,68.4622826,1207086,"خیر کوث","حاجی میر احمد میلمستون"
33.14770746,69.08469915,1205076,"مارزک","مارزک انجونو ښوونځی"
33.06422717,68.97065434,1205077,"سلطانی","ستر جومات"
32.4473061,68.85169469,1208128,"شکین","زریف خان میلمستون"
32.1257959,69.08527955,1208129,"عموواز","حاجی عمر جومات"
32.79963724,68.4943129,1207094,"ملی زی","شریف میلمستون"
32.81990027,68.54518563,1207104,"شاه خیل","عجب خان میلمستون"
32.74249173,68.94004699,1208136,"تابوت","سعید احمد مدرسه"
32.76417635,68.40064473,1209110,"د ولسوالی مرکز","د جانی خیلو بازار جومات"
32.74827956,68.39860019,1209111,"جلالزو","ملاح غنی میلمستون"
32.76294915,68.39710272,1209117,"جفر","احمد میلمستون"
32.7628,68.39701093,1209118,"جفر","زکریا میلمستون"
32.93893913,69.24188991,1211177,"بیبی کوت کلی","بی بی کوت جومات"
33.1727249,69.24836985,1213201,"طوری خیل","توری خیل جومات"
33.14792194,69.23540362,1213202,"طوری خیل","ظفر جان میلمستون"
32.900984065,69.269766837,1211186,"شیخان کلی","ظریف میلمستون"
32.9253963,69.25700206,1211296,"پيركوتي","پيركوتي  كلينیك"
32.62538879,69.24444226,1214248,"ملک شاهی","مدرسه ملک شاهی"
32.96675301,69.3396876,1215269,"اوگوحاست","جانگیر جومات"
32.96815535,69.34073935,1215270,"اوگوحاست","نذرگل میلمستون"
32.18532421,68.25623665,1217299,"مرجان","مرجان کلی خیمه"
32.5970838,68.04435485,1216210,"مرکز ولسوالی","روغتیائی کلینیک"
32.62203767,68.08786797,1216212,"عطر گیّ","گل صادین میلمستون"
31.77452553,68.86965503,1218302,"دوچینه","دكلي جومات دوچينه"
33.46243685,69.49360029,1305122,"شلم","د قادر جان هجره"
33.70240797,69.62318382,1312154,"شرابک، لجه منګل","شرابک ابتدائیه مکتب"
33.8319444,69.9022222,1311185,"نری زاور","متوسطه مکتب"
33.81125735,69.62981956,1312146,"چرګو کلی، لجه منګل","مکتب لجه منګل"
33.45988143,70.21944023,1408055,"ببرک تانه کلی","خیمه په ببرک تانه کی"
31.13029878,64.1925544,3006119,"د حاجی سید میر خان","مكتب هزار جفت"
31.47825107,65.32941981,2704191,"ټالكان","د ملا عطا محمد منطقه"
36.2207309,66.90845968,2107271,"پل برق","منزل طلا قریه دار"
34.33691066,61.76787065,3205272,"قلعه ریگ","مكتب ابتدايي اميرمعاويه"
34.99662751,69.68367932,0205041,"حسین خیل","مکتب متوسطه محمدایوب شهید"
34.51573382,69.16985512,0101021,"جوي شير","ليسه انصاري"
34.51251,69.15076,0101040,"نو آباد دهمزنگ","مکتب متوسطه امير حمزه"
34.53907627,69.15720675,0101059,"کلوله پشته","مسجد امام رضاي غريب"
34.52250632,69.08491043,0101079,"قلعه طوفان","مسجد اتفاق"
34.50561111,69.10605555,0101098,"قلعه ناظر","ليسه محمد آصف مايل"
34.49875184,69.09900221,0101099,"قریه ده قابل","مسجد علي نقی"
34.50246264,69.12148858,0101118,"قلعه شهاده","لیسه ام البنین"
34.48385439,69.16557078,0101139,"واصل آباد","ليسه عمرا خان"
34.50522254,69.20667875,0101155,"مسجد اتفاق","ليسه نسوان آمينه فدوي"
34.50292905,69.22210894,0101174,"قسمت ب رحمن مينه","مسجد شيخ نجم الدين اخوندزاده"
34.52285652,69.19100512,0101190,"شش درک","مسجد جامع شرقی شش درک"
34.52576152,69.1901566,0101191,"شش درک","لیسه ستاره"
34.54213852,69.16982966,0101206,"نو آباد چهار قلعه","مسجد حضرت عمر فاروق"
34.52932787,69.18348744,0101226,"وزیر اکبر خان","ليسه عالي اماني"
34.53561388,69.18246111,0101227,"وزیر اکبر خان","مسجد وزير اکبر خان"
34.57273333,69.13266388,0101245,"قلعه نجارها","مسجد جامع امام زمان"
34.49524977,69.08290154,0101259,"دشت بيست هزاري","مسجد کاظميه"
34.9966139,69.68356018,0205064,"حسین خیل","مکتب متوسطه محمد ایوب شهید (کوچی)"
35.03846834,69.61286596,0205062,"روضا خیل","منزل ملک روضا خیل"
34.41477223,70.57992799,0605149,"قلعه اخند","قلعه اخند جومات"
34.98302689,69.19735298,0301006,"میانشاخ","لیسه میانشاخ"
34.98421251,69.12533518,0301027,"توب دره","مکتب توب دره"
34.96375494,69.19891676,0302111,"دولت شاهی","لیسه عبدالستار شهید"
35.05150528,69.2652321,0304037,"آقتاش","لیسه امام اعظم آقتاش"
35.12619001,69.27843799,0305057,"دو بندی","مسجد جامع دو بندی"
35.1152164,69.11027099,0305058,"مرکز آشابه","مسجد آشابه"
34.92405001,68.64786727,0309132,"بازار لولنج","لیسه نسوان بازار لولنج"
34.39469009,68.86581843,0401001,"تعمیرشاروالی میدان شهر","تعمیر شاروالی"
34.15868679,68.68389434,0404084,"لنگر","مدرسه لنگر"
33.87735625,68.63747904,0405127,"سلطان خیل","مسجد قریه سلطان خیل"
33.90627993,68.62996977,0405128,"بهادرخیل","مکتب المار"
34.23750654,68.48719312,0406070,"تنگی سیدان","کلینیک تنگی سیدان"
34.37193758,67.89919982,0409034,"قریه درنجوی","مسجد درنجوی"
34.37206787,67.97147811,0409055,"کوته مکتب","مکتب باد آسیاب"
33.87698637,69.13026177,0501014,"چوڼى","مکتب چوڼى"
33.97090739,68.97809524,0502036,"قلعه بادى","مسجد قلعه بادى"
34.11534155,69.1293884,0505058,"زرغون شهر","مکتب اناث و ذکور زرغون شهر"
34.28315228,69.14945702,0505059,"گماران","مکتب گماران"
34.432705229,70.433192375,0601020,"دریمه ناحیه","د ښځو چارو رياست"
34.412415553,70.470346187,0601041,"څلورمه ناحیه","مجبور آباد مکتب"
34.36314468,70.47160351,0602067,"هډه","هډه  مکتب"
34.36261812,70.47027914,0602068,"هډه","نجم القرا کلینيک"
34.3949062,70.22175106,0603090,"بالا باغ","بالاباغ کلینيک"
34.67231445,66.84244182,1005072,"سر کنک","منبر سر کنک"
34.61724298,66.74750431,1005073,"سرخک","منبرسرخک پایین"
34.93232507,66.46149527,1005093,"شینیه سر مرغی","منبرشینیه سر مرغی"
34.32706546,66.8998528,1006111,"ینقول","مسجد گرد نی"
34.30592109,66.65535975,1006112,"چارده","مسجد چارده"
34.05195621,66.61715195,1007133,"دهن نو شدی قول مسوت","مسجد زردک بیرانه قول مسوت"
34.25777448,67.19669969,1007137,"دهن منگوس شینیه اوبه","مسجد دهن منگوس شینیه اوبه"
34.12045105,66.86597024,1007155,"التر غنه گک","مسجد پیش ده"
35.66360644,64.93290691,2902029,"چهک گلیم بافت","مسجد چهک گلیم بافت"
35.9108674,64.64524039,2902049,"عرب آقسای","مکتب متوسطه ذکور عرب آقسای"
35.88823922,64.82447954,2902051,"جمشیدی","مکتب متوسطه جمشیدی"
35.83350382,64.86724037,2902052,"دهندره","مکتب دهندره"
36.01063214,64.68608003,2902201,"خواجه موسی","مسجد جرقعله خواجه موسی"
35.84077368,64.65976127,2902202,"عرب کاوان باشی","مسجد عرب کاوان باشی"
35.88236367,64.5833181,2904065,"چغاتک","مسجد جامع چغاتک"
35.7867354,64.53605587,2904066,"ایتی اوروق","مسجد جامع ایتی اوروق"
35.96046123,65.52694338,2905143,"قریه خواجه عرب","مسجد قورغ خواجه عرب"
35.94317189,65.19112297,2905207,"قیرمه","مسجد قیرمه"
36.13588162,65.08153978,2906145,"گل قدوق","مکتب ذکور گل قدوق"
36.25708984,64.85555871,2906146,"تپه قلعه","مسجد جامع تپه قلعه"
35.68626537,64.03049822,2907088,"قریه وایمس","مکتب وایمس"
35.59697223,64.30550956,2907106,"یوزبیگی","مکتب چکنه  یوزبیگی"
35.59007472,64.16132919,2907107,"غوره","مسجد غوره"
35.67212603,64.53667042,2907109,"صیاد نقی","مسجد صیاد نقی"
35.59361105,65.0790376,2908135,"قریه دهندره","مکتب متوسطه مرغابی"
36.46464321,64.8968979,2909164,"چارشنغو","مکتب متوسطه چارشنغو"
36.39175783,64.93543327,2909165,"خیر آباد","مکتب ابتدای خیر آباد"
36.33493803,64.90396288,2909168,"جوق ها","مسجد جامع جوق ها"
35.34094386,64.73990738,2910121,"قدوغک","مکتب قدوغک"
35.22983163,64.59364213,2910122,"تخته بند لفرا","مسجد تخته بند لفرا"
36.95606823,65.11577455,2913185,"کلال خانه","لیسه قاضی بابه مراد"
36.95120761,65.14060093,2913186,"شهر نو","لیسه دولت گیلدی"
36.98423599,65.17775312,2914176,"عرب شاه توره خان","لیسه رحمن قل شهید"
36.94933794,65.2131962,2914177,"چکمن","لیسه چکمن"
36.99048597,65.16170332,2914180,"عرب شاه پایین","لیسه نسوان عرب شاه پایین"
31.61208738,64.46979044,3001001,"سرکار","حاجی طاوس مسجد"
35.90273894,64.76273524,2901003,"ناحیه هفتم","مکتب لیسه صیاد رجب"
35.91599397,64.79011901,2901004,"ناحیه دوم","لیسه نسوان افغانکوت"
36.02271593,64.69247675,2902021,"گدای قلعه","مکتب ذکورگدای قلعه"
35.90640316,65.09922394,2902035,"زرشوی","مسجد عمومی زرشوی"
35.95526629,65.13858719,2902038,"تیرک لیک","مسجد تیرک لیک"
35.74357546,64.80857297,2902039,"قریه چکاب","مسجد برهان بای"
35.76956508,64.69984285,2902044,"تکلی هزار سم","مسجد تکلی هزار سم"
35.81991917,64.67728527,2902045,"موقانی","مسجد جامع موقانی"
30.938905545,61.862519036,3401058,"پلان 7/6شهری","الحاقیه سیستان"
30.850425819,61.810487543,3401059,"فیروزه گی","مکتب ابتدایی فیروزه گی"
31.419475393,61.785463941,3402060,"ملارسول","مکتب گرگیج"
31.32320843,61.78768858,3402013,"کرکی","مکتب کرکی"
31.20306659,61.7801873,3402014,"طلائی","مکتب طلائی"
31.20377857,62.14721278,3403037,"ده نو","اطاق های حاجی صدیق"
31.38601012,62.38432313,3403038,"آوربلوچی","منزل شخصی محمد داودخان"
30.15261987,62.59607634,3404027,"رودبار","منزل حاجی گل محمد"
30.195242705,61.771187175,3404063,"کرودی حاجی محمد امین","مکتب کرودی"
37.48621425,70.44621744,1709132,"درنگ پایان","سنگ پایان"
37.5377979,70.53806614,1709136,"آب زمچ","مسجد آب زمچ"
36.84746352,70.30657257,1711181,"ارغندکان","مکتب ارغندکان"
36.81236318,70.28302985,1711182,"یاولی بالا","مکتب یاولی بالا"
36.76328256,70.38130981,1711186,"دشت لارینگ","مکتب دشت لارینگ"
37.40701819,70.03096488,1713145,"سنگی خواه","مکتب سنگی خواه"
37.59336632,70.55376294,1714229,"زیرکی","مسجد زیرکی"
36.76791247,70.1220563,1715159,"خشکه دره","مکتب خشکه دره"
36.66171824,70.17893825,1715160,"دشت خاورک","مکتب دشت خاورک"
36.03816002,64.97654448,2903057,"بولک بچه","تعمیر شورای همبستگی بولک بچه"
36.07255767,64.8409815,2903058,"ده نو","تعمیر لیسه ذکور ده نو"
36.02986334,64.8747361,2903061,"سملیک پوگانی","تعمیر شورای همبستگی سملیک پوگانی"
36.04318238,64.8487503,2903062,"بادغیسی","لیسه نسوان بادغیسی"
35.84736317,64.53369048,2904063,"بازار المار","لیسه ذکور المار"
35.5638859,64.56910709,2904073,"قرایی","مکتب متوسطه قرایی"
35.57594462,64.59870451,2904076,"خوش بایی","مکتب ابتدای خوش بایی"
35.59080497,64.54981095,2904077,"آق مسجد,","مکتب ابتدای آق مسجد"
35.84318914,65.23171608,2905138,"بلچراغ","مدرسه مرکز بلچراغ"
35.89682909,65.51587708,2905139,"تاش قلعه","مکتب ذکور تاش قلعه"
36.22613555,64.86398995,2906149,"اسلام قلعه","مکتب ذکور اسلام قلعه"
36.15539727,64.95063004,2906150,"قریه مهد","مکتب مهد"
36.10979108,65.01539425,2906208,"کلته شور","مسجد جامع کلته شور"
35.67851321,64.05980469,2907204,"قریه خطائی","مسجد جامع خطائی"
35.73536973,65.35578278,2908123,"غولبیان","مسجد جامع غولبیان"
35.70499036,65.33273774,2908126,"قریه تخاره","مسجد جامع تخاره"
35.63678932,65.28086281,2908127,"دره زنگ","مدرسه دره زنگ"
35.39420904,65.26107731,2910117,"بام سرخ","مسجد بام سرخ"
36.95829396,65.07228939,2912192,"باغ بوستان پایان","مسجد خلیفه عبدالله"
36.91712742,65.0695866,2912193,"قرغان","مکتب ابتدایی کهنه قرغان"
36.089203552,64.86351618,2903210,"ینگی قلعه","مسجد جامع ینگی قلعه"
36.022267296,64.871341562,2903211,"قزل قشلاق","مکتب ذکور قزل قشلاق"
35.678313952,65.276755787,2908213,"پخلسوز","مکتب نسوان پخلسوز"
35.386369879,65.3564799,2910214,"پشت دروازه","مسجد"
35.92165726,64.77659554,2901010,"ناحیه سوم","مکتب متوسطه جرنیل غوث الدین"
35.90946155,64.77830134,2901011,"ناحیه سوم","مکتب نسوان پشه خانی"
35.92692398,64.784409,2901199,"ناحیه جهارم","مدیریت وتر نری"
35.97181868,64.89381347,2903056,"شباختو","مکتب نسوان شباختو"
36.31211014,64.95232285,2906154,"شاه یوسف","مکتب متوسطه ذکور شاه یوسف"
36.29248254,64.87232578,2906155,"فیض آباد","لیسه شمس الدین شهید"
35.72918073,64.33667387,2907092,"ثور","مسجد جامع ثور"
35.69363872,65.16467974,2908132,"جر قلعه","لیسه جر قلعه"
35.67237525,65.13935272,2908133,"تگاب شان","مدرسه تگاب شان"
36.86448903,65.08320934,2911170,"قریه آلتی بولک وسطی","لیسه ذکور قرمقول"
36.83874903,65.13707114,2911173,"یوسف میر زایی","مکتب نسوان یوسف میرزایی"
36.85367332,65.08165429,2911174,"آلتی بولک","مکتب نسوان آلتی بولک"
36.91906982,65.09308753,2912198,"قرغان","لیسه باغ بوستان"
36.94528897,65.12328586,2913181,"شهر نو","لیسه نسوان یولدوز"
36.90594371,65.11217209,2913183,"ینگی تیگرمان","لیسه نسوان ینگی تیگرمان"
31.58645269,64.36555628,3001003,"ناحیه 2","د نجونو ليسه"
31.58533434,64.36560981,3001004,"ناحیه 2","متوسطه ذكور"
31.60734659,64.37508093,3001012,"نمرات C1","نمرات C1 مکتب"
31.59794416,64.36132045,3001013,"تور تانک","د تور تانک د هلکانو مکتب"
31.72661414,64.31818332,3002062,"دهنه ۳۱غربی","مكتب ابتدائيه دهنه ۳۱غربی"
31.6954167,64.27105755,3002065,"ناقل آباد","مکتب ناقل آباد"
31.8209806,64.56035125,3004038,"گرشک","دگرشک د حاجی فابریکه"
31.82000645,64.57012669,3004039,"گرشک","د نجونو لیسه"
31.07603693,64.17099487,3006121,"د حاجی داود خان کلي","دحسن آباد بارجاوي مكتب"
32.05761836,64.84086052,3008129,"نوی مکتب با زار","مركزي شفاخانه"
32.07193746,64.83753068,3008130,"د ولسوالی بازار","مسجد جامع مركزي"
31.5145591,64.0665271,3014086,"بلاک ـ ۴ ف","تعمير بلاک ـ ۴ ف"
31.52914498,64.23042719,3014087,"تریخ زابر","د فيض الله كور( کوچی مرکز)"
31.6301187,64.26293447,3002070,"لوی باغ","مکتب لوی باغ"
31.68146524,64.31261712,3002071,"چاه انجیر","لیسه چاه انجیر"
31.64180542,64.21993969,3002080,"شین کلی","مکتب شین کلی"
31.71616869,64.12606307,3002081,"جنوبی جا انجیر مکتب","نور محمد كلي مكتب"
31.42490408,64.3611019,3003092,"منګل زی","مكتب منګل زی"
31.37779026,64.28208466,3003093,"خلج","لیسه خلج"
31.407990661,64.34492724,3003103,"خرابه","كلينيك خرابه"
31.35453314,64.29419262,3003104,"باسلان","د باسلانو روغتیایي مرکز"
31.04606188,64.2012155,3006114,"د حاجی حضرت علی کلی","د حاجی حضرت علی خان د کلی مكتب"
31.01789557,64.18516786,3006115,"د حاجی باری داد کلی","مكتب كودلي"
32.40445721,64.47094564,3007204,"مرکز ولسوالی","مکتب مرکز ولسوالی"
32.15928941,64.96361935,3008133,"نسوزي سفلی","شیرعلی مسجد"
32.17163802,64.96966258,3008134,"نسوزي","مكتب نسوزي"
32.35121228,64.77292558,3009180,"مرکز ولسوالی","مارکیت اختر جان"
32.28022017,64.81106227,3009187,"چیک اب","چيك اپ مكتب"
31.3890808,64.07228957,3014074,"مارجه بلاک ـ ۹","مکتب مارجه بلاک ـ ۹"
31.47104147,64.0460482,3014075,"سیستانی","خانه ملک"
31.59188774,64.37544581,3001010,"کارته لگن ناحیه 2","لیسه کارته لگن"
31.50202868,64.3673263,3001019,"حاجی کریم داد کلی","د حاجی کریم داد کلی مکتب"
31.72487052,64.41792956,3001029,"د رحیم خیلو کلی","کورغوجت مکتب باباجی"
31.63788901,64.35756952,3001030,"د مهاجرینو کمپ","د خان محمد مسجد"
31.4607026,64.33702285,3003107,"ګورګین صفلا","مكتب ګورګین صفلا"
31.36278231,64.32043605,3003108,"ګورګین علیا","مكتب ګورګین علیا"
31.83815922,64.62951415,3004055,"سربند","خانه حاجي سليم"
31.13096019,64.19846171,3006125,"هزارجفت کلی","د هزارجفت کلی مکتب"
30.55137466,63.7856295,3011217,"مرکز ولسوالی","دفتر ولسوالی"
31.37106128,64.10199132,3014083,"مارجه بلاک ـ ۱۱ خورد","مکتب مارجه بلاک ـ ۱۱ خورد"
35.21470479,63.01769924,3102028,"قریه جعفری","لیسه جعفری"
35.04875657,63.04927878,3102037,"مبارک شاه","مکتب متوسطه مبارکشاه"
35.08477015,63.0637632,3102038,"قریه سنگ خرس","مکتب سنگ خرس"
34.86830278,62.82235,3102048,"قریه کوکجایل","مکتب قریه کوکجایل"
34.8995323,62.71967653,3102049,"آب باریک","مکتب آب باریک"
35.10643408,63.20090663,3103022,"خواجه پسته","مسجد قریه خواجه پسته"
35.09738581,63.23614283,3103023,"قریه جکنه","مکتب ابتدائیه قریه جکنه"
34.80225719,63.44161237,3104054,"مرکز ولسوالی","لیسه جمیعت"
34.71529787,63.56934357,3104064,"ارباب محمد قریه","مسجد ارباب محمد"
34.65220352,63.59922382,3104065,"ده ابی","قریه دو آبی"
34.60710221,63.78179114,3104079,"قریه بارگل","مدرسه قریه بارگل"
35.581933035,63.333115512,3105147,"مرکز مرغاب","مکتب مرکز مرغاب"
35.55271308,63.33346585,3105149,"جوی خواجه","مکتب جوی خواجه"
35.458522,63.366289,3105150,"بز بای","مسجد بز بای"
35.15901048,64.42954599,3106109,"تخت زرد","مسجد قریه تخت زرد"
34.97329413,64.23015565,3106110,"غو کلان","مسجد قریه غو کلان"
34.89742855,64.35858413,3106112,"ربات","مسجد ربات"
34.89765779,64.35868406,3106113,"رباتک","مسجد رباتک"
35.74067646,63.81851307,3107140,"پبتو","مسجد قریه پبتو"
34.98415035,63.13066694,3101002,"قلعه نو","لیسه نسوان شهر قلعه نو"
35.01573396,63.13296691,3101003,"فرستان","مکتب فرستان"
34.97513016,63.15277011,3101006,"قر قیطو","مکتب قر قیطو"
34.94759966,63.21159651,3101007,"خا ریستا ن","مکتب خا ریستا ن"
34.7266644,63.20769556,3101012,"ملمنجی","مسجد ملمنجی"
34.96876345,63.09848979,3101013,"تگاب اسماعیل","مکتب تگاب اسماعیل"
34.81887234,63.02480598,3101017,"اعلم چوب","بازاراعلم چوب"
34.76937338,63.05213752,3101018,"چکاب","کلینیک چکاب"
34.80191009,62.89362415,3102043,"گنده آب","مسجد گنده آب"
34.69171038,62.92748173,3102044,"دهستان","مسجد جامع قریه دهستان"
34.70423301,63.37324508,3104058,"جولیق","مکتب جولیق"
34.72685645,63.45402344,3104059,"بویه ها","مکتب بویه ها"
34.96075228,63.30396062,3104068,"باب دوستی","مکتب باب دوستی"
34.82147749,63.51209802,3104069,"مکتب تاکک","مکتب تاکک"
34.85333333,63.72138888,3104076,"قریه گنبد شیخ غیاث الدین","مدرسه گنبد شیخ غیاث الدین"
34.76677104,63.713642,3104077,"قریه نایک","مسجد جامع نایک"
34.9646667,63.62597071,3104082,"قریه خیرخانه","مسجد خیرخانه"
34.75172043,63.97969871,3106093,"میل نو","مسجید میل نو"
34.81455451,64.06824153,3106094,"اب خور","مکتب آب خور"
34.94636473,64.62952652,3106104,"چشمه بید","مسجد چشمه بید"
34.89102118,64.60054476,3106105,"چشمه چهار","مسجد قریه چشمه چهار"
35.73948356,63.78017896,3107124,"غورماچ","مکتب مرکز"
35.73742073,63.82468762,3107125,"قریه آب گرمک","قریه آب گرمک"
34.80361111,63.24,3101008,"قریه نچک","تعمیر مرکز اجتماعی قریه نجک زاد سرهنگ"
34.95469535,63.13965545,3101009,"باغک","مکتب باغک"
35.15100816,63.05915068,3102035,"هیچکه","مکتب لیسه هیچکه"
34.70562328,62.81974061,3102045,"بازار سینه اردو","مسجد  جامع سینه اردو"
34.8921869,62.9048612,3102046,"پده لاغری","مکتب پده لاغری"
34.87189866,62.85200133,3102175,"دره کوک چایل","مکتب تحت دره کوکچایل"
34.78142015,62.97188121,3102176,"قریه سیر زارک","مکتب قریه سیر زارک"
35.07939017,63.27010217,3103020,"رباط","تعمیر ولسوالی و کلینیک رباط"
34.84852773,63.79857886,3106091,"ریگی","مسجد قریه ریگی"
35.08293245,64.34224311,3106101,"کازک","مسجد فریه کازک"
34.780398745,64.391080097,3106199,"پای چنگ","مسجد پای چنگ"
34.871768763,64.362597811,3106200,"حضرت ملا","مسجد حضرت ملا"
34.712594328,63.861761112,3104193,"شورک","مکتب شورک"
35.55351431,63.355167128,3105194,"کپه بابا","قریه کپه بابا"
34.3441926,62.20011509,3201005,"ناحیه سوم","لیسه جامی"
34.34000201,62.19971935,3201006,"ناحیه سوم","لیسه خواجه محمد تاکی"
34.34277034,62.21013623,3201008,"ناحیه چهارم","لیسه ذکور بالیا ن"
34.360024,62.19608942,3201009,"ناحیه پنجم","مهدیه غور درواز"
34.35962063,62.2059547,3201011,"ناحیه پنجم","لیسه تجربوی"
34.36034601,62.19771218,3201012,"ناحیه پنجم","لیسه میرمن حیاتی (باغدشت)"
34.3440825,62.18939018,3201021,"ناحیه هفتم","مسجد اختیارالدین"
34.35959036,62.2171719,3201022,"ناحیه هشتم","مکتب امیر علی شیرنوایی"
34.38415583,62.16838743,3201026,"ناحیه نهم","مکتب صلاح الدین سلجوقی"
34.36460191,62.18432351,3201027,"ناحیه دوازدهم","مکتب عبدالعلی شاه توخی"
34.33518541,62.19016225,3201029,"ناحیه دهم","متوسطه هریوا"
34.33314363,62.17621147,3201030,"ناحیه دهم","مسجد حضرت بلال"
34.378943026,62.150743891,3201430,"ناحیه دوازدهم","ریاست عودت مهاجرین"
34.29685683,62.20864076,3202033,"جغاره دوم","مسجد پایانده"
34.313302855,62.191161677,3202034,"قفسلان","لیسه قفسلان"
34.3309318,62.24452484,3202067,"قریه زمان آباد","لیسه شهید دشتی"
34.32899342,62.32493688,3202068,"قریه  تاوه بریان","مکتب متوسطه تاوه بریان"
34.42177409,62.05383911,3202072,"مسلخ اول","دفتر مهاجرین"
34.40209106,62.12937741,3202073,"قریه اسحق سلیمان","لیسه اسحق سلیمان"
34.3075111,62.17282629,3202077,"بزدانك حسن خان","مکتب متوسطه خواجه عبیدالله احرار"
34.30480207,62.12204893,3202434,"قریه رباط سروستان","مسجد رباط سروستان"
34.37824217,62.17393135,3202435,"محله باباجی ناحیه دوازدهم شهر هرات","مکتب لیسه باباجی"
34.23155671,62.31641613,3203088,"قریه کورت سفلی","مسجد جامع کورت سفلی"
34.24109712,62.28791748,3203089,"قریه چهار کبوترخان","مسجد جامع چهارکبوترخان"
34.21406119,62.10583545,3203099,"قریه کوفان","لیسه کوفان"
34.24891859,62.09816097,3203100,"قریه زنگان","مکتب متوسطه زنگان"
34.49229039,62.58207601,3204148,"مرکز کرخ","لیسه مرکز کرخ"
34.47670069,62.58693511,3204149,"پایان محله کرخ","مسجد سبز پوش"
34.45712157,62.55279255,3204151,"دهن غار","مکتب دهن غار"
34.45380215,62.48675251,3204152,"قریه مجقندک","مکتب مجقندک"
34.49784458,62.41782183,3204155,"قریه نهستان","مکتب فالیزکار"
34.48132639,62.71569897,3204156,"قریه معلومه","مکتب معلومه"
34.40498802,61.66592908,3205263,"قریه شاده","مکتب جاده شاده"
34.39386062,61.68392987,3205264,"قریه اوغه","مکتب شیخ ابولیث"
34.33497548,61.71669398,3205274,"ملکی ها","مکتب جدید ملکی ها"
34.24187398,62.7517183,3206122,"قریه بزیان","مسجد بزیان"
34.24002335,62.75211458,3206123,"قریه بزیان","مکتب بزیان"
34.29302796,62.46391743,3206137,"غوران","مکتب غوران"
34.25613486,62.88819884,3206138,"قریه مارآباد","مکتب لیسه مارآباد"
34.30932494,62.56182236,3206140,"قریه توران","مکتب توران"
34.72348396,62.05546492,3207168,"قریه  چهار اولنگ","مكتب چهار اولنگ"
34.76533317,62.29075891,3207179,"قریه خلیفه رحمت","مکتب خلیفه رحمت"
35.24395437,62.28310942,3207189,"شهرک تورغندی","مکتب تورغندی اول"
35.24395188,62.28299744,3207190,"شهرک تور غندی","مکتب لیسه نسوان"
34.93841678,61.77532915,3208196,"بازار قره باغ","لیسه قره باغ"
33.82777758,62.34963224,3209284,"جهان خان","مسجدجهان خان"
33.62056893,62.66633807,3209285,"میرآباد","مکتب خاربید میرآباد"
34.85056564,62.56135058,3210407,"مرکز ولسوالی","مکتب متوسطه دختران ککلم دوم"
34.78444798,62.65692785,3210417,"خواجه قلندر","مکتب خواجه قلندر"
34.81017164,62.70055048,3210418,"قریه زنده حشم","مکتب زنده حشم"
34.35347529,61.53156568,3211248,"گندم منه","مسجد جامع گندم منه"
34.38533176,61.59431424,3211249,"قریه برنآباد","مکتب دخترانه برنآباد زنانه"
34.50762557,60.91623646,3211259,"مرکز قریه چاه ریگ","مسجد جامع چاه ریگ"
34.32299458,63.06754243,3212368,"قریه صبیره دشت","مکتب صبیره"
34.34272248,63.14852707,3212369,"مسافران","مسجد مسافران"
34.38457777,63.42095555,3212371,"قریه جنوا","مکتب جنوا مردانه"
34.38374217,63.42060021,3212372,"قریه جنوا","مکتب جدید جنوا زنانه"
34.50332398,63.47561507,3212386,"ده گاهی مردانه","مسجد ده گاهی"
34.50224467,63.48067713,3212387,"ده گاهی زنانه","مسجد دواوم"
34.3239103,63.12044992,3212468,"گنا ه آباد","مسجد عبدالرحیم خان"
34.34340933,68.68343877,0402151,"اسلم خیل","مکتب اسلم خیل"
35.28084933,64.27017166,3106116,"قریه کوجه لال بای","مسجد مولاداد"
34.025313986,61.654794549,3203116,"قریه چاه بلبل","موقعیت کوچی های چاه بلبل"
35.07578682,62.10002979,3207446,"سرچشمه مقر","مسجد جامع مقر"
35.06939589,61.63138501,3208224,"قریه ریگ آب","مسجد ریگ آب"
34.9660933,61.6082023,3208225,"قریه آب سفید","مسجد آب سفید"
34.88376837,61.57604615,3213449,"نی یک","خيمه ني يك"
33.30415102,62.15668277,3214298,"تحت بازار","مرکز شاروالی"
33.38188029,62.3063314,3214322,"قلعه میرزا","مسجد قلعه میرزا حاجی اکرم"
33.34173507,62.32066825,3214323,"ده عبدالعزیز","مکتب ده عبدالعزیز"
33.84270495,63.37220099,3215355,"آب ماهی","مسجد آب ماهی"
33.89640402,63.20338267,3215356,"پای حصار","تعمیر شورای انکشافی"
33.87512985,63.14260077,3215360,"حاجی باغ","مسجد حاجی باغ"
33.81440835,63.38391549,3215361,"شش یار","شورای انکشا فی شش یار"
33.83906243,63.54358733,3215363,"قریه دهن پیازک","مکتب قریه پیازک"
33.85731371,63.32019687,3215364,"ارخ","مسجد جامع"
34.35181552,63.83922969,3216397,"سلما","مکتب سلما"
34.3341915,63.90652062,3216398,"شیر خاج","مسجد شیر خاج"
34.37343721,63.9870676,3216470,"رباطک","مسجد جامع رباطک"
32.37732837,62.11794905,3301001,"مرکز ( شهر فراه )","لیسه میر من نازو"
34.363025242,62.224014381,3201472,"ليسه استاد كمال الدين بهزاد","ليسه استاد كمال الدين بهزاد"
34.34321133,62.22106265,3201015,"ناحیه ششم","مسجد پل رگینه"
34.33336559,62.21739317,3201016,"ناحیه ششم","مسجدعثما ن غنی"
34.29699064,62.22803676,3202046,"قریه نوین سفلی","مکتب نوین سفلی"
34.34828307,62.30775505,3202047,"قریه کهدستان","مکتب کهدستان"
34.26721333,62.26625593,3202050,"ادران","مسجد جامع ادران"
34.309844782,62.185822205,3202051,"قریه بزدان آلنجان","مکتب بزدانک انجیل"
34.32373761,62.22545969,3202058,"قریه قیزان سنگر","مجتمع فرهنگي قیزان سنگر"
34.30745922,62.24940446,3202059,"قریه گرداب","مکتب گرداب"
34.271179748,62.36410114,3202061,"قریه سر اسیاب","مکتب متوسطه سر آسیاب"
34.28297904,62.23085794,3202063,"قریه گرازان","مكتب ابتدائي ابوريحان البيروني"
34.29534328,62.31656241,3202064,"قریه نو بادام","لیسه نوبادام"
34.32679584,62.28860059,3202066,"قریه بدلو","مکتب متوسطه غزالی بدلو"
34.35106025,62.09182335,3202436,"قریه جلال آباد","مكتب صوفيان(لیسه امیر اسما عیل خان)"
34.03400308,62.18267166,3203082,"چشمه خوانی","مکتب متوسطه چشمه خوانی"
34.2281095,62.33038142,3203094,"قریه کورت علیا","لیسه وحدت کورت علیا"
34.21547677,62.15089527,3203095,"قریه مالان","لیسه مالان"
34.24089457,62.42061249,3203105,"قریه بیچقی","مسجد جامع بیچقی"
34.22814309,62.2199725,3203106,"محله باغبان ها","لیسه وزیر فتح خان"
34.22380087,62.04455404,3203109,"قریه تیزان","مکتب متوسطه تیزان"
34.28207419,62.04265119,3203110,"قریه فرجای","مکتب متوسطه فرجایی"
34.03959817,62.07791887,3203118,"قریه شراب پایین","موقعیت کوچی های شراب پایین"
34.27707687,62.06482329,3203437,"كلاته مزرعه","مسجد كلاته مزرعه"
34.34258734,61.74732555,3205270,"مرکز ولسوالی","مکتب  فوشنج"
34.30594526,62.51803115,3206143,"قریه تونیون","مکتب تونیون"
34.24660603,62.86863498,3206144,"قریه بوریا باف","مکتب بوریا باف"
35.18631321,62.19081016,3207191,"قریه برجنک","مکتب بر جنک"
35.09574112,62.32312078,3207192,"قریه یکه توت","مکتب یکه توت"
34.85103498,61.87407255,3208228,"رباط سرگردان","موقعیت کوچی های رباط سرگردان"
33.6023543,62.86699649,3209287,"قریه شیرزاد","مکتب شیرزاد"
33.663515,62.89822923,3209288,"تخاب","مسجد تخاب"
33.73254257,62.74181846,3209291,"کروچه","مکتب متوسطه کروچه"
33.58425811,62.5514087,3209295,"قریه چنار","مسجد چنار"
33.88895627,62.40139748,3209462,"زرد الوگک","مكتب زرد آلوگك"
34.8177978,62.48242571,3210409,"قریه کاریز زمان","مسجد جامع کاریز زمان مردانه"
34.80938536,62.47632614,3210410,"قریه کاریز زمان","مسجد پایین کاریز زمان زنانه"
34.75132006,62.60132598,3210419,"خواجه شهاب","مکتب خواجه شهاب"
34.43327241,61.44119407,3211254,"قریه زنگی صبا","مسجد زنگی صبا"
34.49565368,61.39102211,3211255,"قریه شبش","مکتب شبش"
34.26332354,63.020466,3212378,"قریه کرشک","مسجد جامع کرشک مردانه"
34.26386569,63.02070843,3212379,"قریه کرشک","مسجد جامع کرشک زنانه"
34.79808168,61.09388579,3213232,"قزل اسلام","مکتب متوسطه قزل اسلام"
34.65673672,61.11466064,3213233,"قدوس آباد دوم","مکتب قدوس آباد دوم"
34.67090116,61.0886774,3213236,"اسلام قلعه","مکتب متوسطه اسلام قلعه"
34.56594084,61.32219273,3213237,"احمد آباد","مکتب ابتدایی احمد آباد"
34.63873188,61.22437925,3213242,"قلعه سردار","مکتب ابتدائیه  قلعه سردار"
34.74304996,61.11542084,3213243,"مصطفی بیگ","مکتب ابتدائیه  مصطفی بیگ"
33.34520026,62.15973369,3214304,"قریه شورآب","مکتب شورآب"
33.3457396,62.15030587,3214305,"پشت شهر","مسجد ابراهیم خان پشت شهر"
33.29381348,62.15212498,3214308,"پا کشک","مسجد حاجی علاوالدین خان"
33.27459786,62.11055951,3214309,"خیفان اول","مسجد حاجی نظر"
33.35426936,62.28838682,3214326,"ده پهلوان","مسجد حاجی سلطان خان"
33.3659923,62.24986873,3214327,"قریه مغلان","مسجد مغلان کهنه"
33.13150753,62.60009551,3214349,"خیرآباد","کلینیک خیرآباد"
34.3567349,63.56079533,3216394,"اصفرض","مکتب اصفرض"
34.35080724,63.67490371,3216395,"تکاب غزه","مسجد جامع تگاب غزه"
34.375449718,62.199480756,3201473,"ليسه استقلال باغ دشت","ليسه استقلال باغ دشت"
34.36764847,62.20068488,3201425,"ناحیه پنجم","مسجد باغدشت"
34.34839744,62.26830597,3201426,"ناحیه یازدهم","مسجد جامع نو آباد"
34.381693547,62.135527585,3201431,"ناحیه دوازدهم","مکتب دخترانه جبرئیل"
34.35364074,62.21555959,3201432,"ناحیه اول شاروالی","محبس هرات"
34.31847386,62.23636988,3202057,"قریه عقاب کبابیان","مکتب متوسطه کبابیان"
34.38327766,62.122491,3202074,"قریه شادی بره علیا","مکتب متوسطه خواجه محمد کوهی"
34.31517715,62.11305711,3202075,"قریه ملدان","مکتب محل ناجوها"
34.27605539,62.39591845,3202079,"قریه سر حسن خواجه","مسجد سر حسن خواجه"
34.29754944,62.12345029,3202080,"قریه کبرزان","مکتب کبرزان"
34.25808601,62.41599342,3203097,"قریه رباط میرک تقچی","مکتب ابتدائی رباط میرک"
34.39056339,61.78434134,3205261,"شکیبان مروی اول","مکتب ابو منصورشکیبان"
34.3294849,61.73714254,3205458,"محل خواجه های دشت","مکتب محل خواجه ها"
34.22748282,62.69141857,3206119,"قریه گیم","لیسه مرکز گیم"
34.23853407,62.80726072,3206125,"پشکان دوم","مکتب پشکان دوم"
34.22586619,62.86712427,3206134,"قریه چیورشی","مکتب چیورشی"
34.24369612,62.95633057,3206135,"قریه دشت نیزان","مکتب دشت نیزان"
34.30713044,62.82146431,3206439,"قریه خواجه محمد استاد","مكتب خواجه محمد استاد"
34.9121292,62.1622113,3207173,"قریه دیزوری اول","مسجد دوغی دیزوری اول"
34.80783749,62.08256024,3207186,"قریه خواجه قاسم","مکتب خواجه قاسم"
35.38715946,61.29799102,3208212,"داشک","مسجد داشک"
35.36781529,61.34897533,3208213,"کاریز کهنه","مسجد کاریز کهنه"
33.64391049,62.2668806,3209275,"مرکز ولسوالی ادرسکن","لیسه مرکز ولسوالی"
33.62144011,62.24857563,3209276,"قریه ده سبز","مکتب ابتدائیه ده سبز"
33.5590239,62.15869027,3209279,"قریه ظلم آباد","مکتب متوسطه  ظلم آباد"
33.63256596,62.28830146,3209459,"قریه خرچان","مکتب ابتدایی قلعه خرچان"
34.34113633,61.47523589,3211246,"مرکز غنجان","مسجدغنجان"
34.34615218,61.49499258,3211256,"مرکز ولسوالی دوم","مکتب وزیر اکبر خان"
34.34598678,61.50355861,3211257,"محل فاقدان","مسجد جامع قیسان"
34.37623516,63.17450726,3212374,"مرکز اوبه دوم","مکتب دخترانه مرکز اوبه دوم"
35.049221143,61.134080919,3213239,"کمانه","مکتب ابتدایی کمانه"
34.76693763,61.07770633,3213447,"نائب غفور","مسجد نائب غفور"
33.625524775,61.920265068,3209482,"غلام كشته","مسجد غلام كشته"
34.365095925,64.050541686,3216483,"دره تخت","مکتب شیرخان"
32.283767259,62.047366056,3301246,"کاریزک","مکتب ذکور کاریزک"
32.23983508,62.01622067,3301012,"نوده","لیسه نسوان شیر علی خان"
32.07295916,61.81425644,3301013,"تجگ","مکتب متوسطه"
32.34977833,62.03144961,3301015,"دارا باد بالا","لیسه ملا معین"
32.38542335,62.02308883,3301016,"رج","لیسه مردانه"
32.37155417,61.98301329,3301018,"کاریز شیخ ها","مکتب متوسطه"
32.49847222,62.26230555,3301019,"شمالگاه","لیسه شمالگاه"
32.46806666,62.20400833,3301026,"سور","لیسه سور و شوراب"
32.39318095,62.06882933,3301027,"برنک توت","مکتب ابتدایی"
32.3192884,61.71466207,3305093,"کاریز ملهم","مکتب ابتدائیه"
32.14500638,61.41170881,3305094,"جرگ","مکتب ابتدائیه جرگ"
32.86689739,62.44632689,3306162,"ابخرما","مسجد ابخرما"
31.71167042,61.62028091,3309095,"مرکز جوین","لیسه ذکور ابن ایمن جوینی"
31.74783562,61.58565518,3309107,"پنج ده","مکتب ابتدائیه پنج ده"
32.88883985,63.8368371,3311189,"چورگ","مکتب ابتدائیه چورگ"
33.00457793,64.21199809,3311190,"سپا وست","مسجد سپا وست"
33.3113668,63.65673637,3311201,"راز کلگی","مسجد راز کلگی"
33.34990626,63.8090856,3311203,"لاروست","مسجد لاروست"
33.42758509,63.85502321,3311204,"ولیمه","مسجد ولیمه"
33.13831635,63.46842169,3311212,"خیر آباد","مسجد خیر آباد"
33.01453635,63.84086121,3311213,"ده ترکان","مسجد ده ترکان"
32.33644003,62.06993643,3301007,"شور آباد","مسجد شور آباد"
32.323056,62.09878202,3301008,"کهدانک","لیسه اناث"
32.37837612,62.03900785,3301023,"گینهکان","لیسه مردانه"
32.33669987,62.0252258,3301024,"دارآباد پاین","لیسه نسوان"
32.36805555,62.1025,3301030,"ناحیه چهارم","لیسه نسوان محبوبه پوپل"
32.07098589,61.92575396,3301031,"تخت","مسجد تخت"
32.358606635,61.96818638,3301036,"امیر آباد ( کوچی )","خیمه غرب کاریز شیخها"
32.45730227,62.04417694,3302040,"مساو","لیسه زرعت مساو"
32.41413729,62.00302702,3302041,"روکین","مکتب متوسطه روکین"
32.35351085,61.41855049,3304077,"چاه زندان","لیسه ذکور چاه زندان"
32.27808974,61.61525975,3304078,"دزد بر","مسجد ملک اختر"
32.34646992,61.39152322,3304082,"کوجر","مسجد کوجر"
32.30023301,61.26587613,3304083,"جوی چشمه","مسجد جوی چشمه"
32.14780934,61.455353,3305088,"دو قلعه","لیسه نسوان دو قلعه"
32.13557191,61.69447103,3305089,"باجده","مکتب ابتدائیه باجده"
32.76357594,62.57924905,3306130,"تودنک","مسجد تودنک"
32.62113816,62.50251429,3306131,"قریه شیوان","مسجد شیوان"
32.61148454,62.52486473,3306135,"دهزک","مسجد دهزک"
32.55465646,62.92185757,3306136,"چکاب","مسجد  چکاب"
32.62319585,62.51387533,3306244,"خواجه خضر","مسجد حاجی محمد عوض"
32.64492685,61.60036193,3307062,"زهکن","مکتب زهکن"
32.59032773,61.56688102,3307063,"کلا ته عالم خان","مکتب ابتدائیه و متوسطه جدید کلاته عالم خان"
32.76068803,61.65126257,3307064,"مرکز اناردره","لیسه شیخ عبدالصمد نظری"
32.7082935,61.68626439,3307067,"گورکک","مسجد گورکک"
32.61747477,61.53959367,3307068,"سد کاه","مسجد سد کا"
32.24138994,62.94936649,3308108,"مرکز","مسجد مرکز ( سلطان بکواه )"
33.00991384,63.7967043,3311186,"روباط لروند","مکتب ابتدائیه روباط لروند"
32.97648092,63.9258869,3311187,"خرم جان","مکتب ابتدائیه خرم جان"
33.10193494,64.01601197,3311195,"تولی","مسجد تولی"
33.45026779,63.9618913,3311196,"لاخسار","مسجد لاخسار"
32.95242711,64.12643681,3311207,"خار","مسجد خار"
33.00137676,64.00260836,3311208,"ابشو","مسجد ابشو"
32.92138888,64.13805555,3311214,"دوخاری (کوچی)","مسجد دوخاری"
32.85031392,63.76003546,3311215,"رود بار زوری ( کوچی )","مسجد رود بارزوری"
33.43812165,63.87902593,3311218,"ویردری","مسجد ویردری"
33.35555555,63.64472222,3311219,"ویری","مسجد ویری"
31.27160914,61.82101389,3402018,"دهک ناروئی","مکتب  دهک ناروئی"
31.40194444,61.72277777,3402019,"قریه سر لوف","مکتب قریه سر لوف"
30.37172949,61.85443414,3404024,"چگنی","مکتب چگنی"
30.55341485,61.85000921,3404025,"قلعه فتح","مکتب قلعه فتح"
32.14136882,63.37767331,3406052,"گاو میشی","گاو میشی"
32.05208966,63.27731742,3406053,"قریه پیروزی","قریه پیروزی"
31.257216463,62.200841533,3403062,"ملاعبدالله,سرک","میدانی"
30.9465754,61.85831177,3401003,"زرنج","لیسه رودآبه"
30.96086426,61.85829083,3401004,"زرنج","لیسه نسوان"
31.17062876,62.13666985,3403033,"قریه امیر بنیاد","مکتب قریه امیر بنیاد"
31.23121654,62.15561535,3403034,"منزل عبدالرحمن","منزل عبدالرحمن"
31.52910791,62.79058819,3405045,"خاش","مسجد قریه"
31.77137123,63.00343441,3405046,"منار","مسجد قریه"
32.1675797,63.42360641,3406049,"مرکز ولسوالی","کلینیک صحی گلستان"
31.91816269,63.11865338,3406050,"قریه راکن","مسجد قریه راکن"
34.4356834,70.38212939,0603091,"چهارباغ","چارباغ مکتب"
34.45500817,70.57504504,0605184,"ګج","کوچي کلي ميدان"
34.44452124,70.64170076,0605185,"سپدري","سپدري جومات"
34.43609434,70.554741,0605183,"ډاګ کلي","ډاک کلي میدان"
34.6081579,70.61636139,0606207,"بوډيالۍ پوري کلي","پوري کلي جومات"
34.5888547,70.5991621,0606208,"رحمت آباد","رحمت آباد جومات"
34.29199968,70.52432349,0607143,"کاترغى","کاترغي جومات"
34.2947625,70.52398836,0607144,"کاترغى","خالی میدان"
34.63518922,70.59953018,0612217,"ډاګه","برکلی مسجد"
34.35119562,70.8024589,0614494,"دورخيل","حبيب  خان کور"
34.19882951,70.70961324,0615371,"معروف چينه","معروف چينه جامع جومات"
34.19355983,70.79574478,0616436,"شيرګړ","حضرت بلال مدرسه"
34.21815028,70.84934737,0616437,"٢٨ وياله","مکتب ٢٨ وياله"
34.23152656,71.04310101,0618502,"لالپور","شيرآباد ليسه"
34.12724331,70.81058897,0620411,"سروبي","سروبي مشورتي دفتر"
33.54461661,68.3622718,1101053,"قلعه کوچی","مسجد قلعه کوچی"
34.76171157,70.3133339,0704067,"نیمنایی نیازی","دنيمنائي دکلي جومات"
34.78086096,70.33307657,0704068,"شیخانو کلی","د شېخانو لېسه"
34.99449891,70.00169688,0705110,"کیل","د کېل جومات"
35.02122974,69.96229837,0705111,"نیل خان","د نيل خان جومات"
35.33327911,69.55157916,0801004,"ملسپه","مکتب متوسط ملسیه"
35.29325779,69.49857222,0801005,"خانیز","مدرسه جامع خانیز"
35.2667659,69.63670319,0803060,"تند خو","مکتب تند خو"
35.32867385,69.65621924,0803061,"پوجاوه","مسجد جامع پوجاوه"
35.21994721,69.41849404,0805037,"کرگیم","کلینیک زنانه"
35.56285397,69.86552859,0807074,"تل","مکتب متوسط تل"
35.53008611,69.94444444,0807075,"آریوب","مکتب خواجه عارف"
35.23369697,69.74468233,0808065,"پرنگال","مکتب ذکور پرنګان"
36.10198181,68.55878136,0901020,"خواجه الوان کمپ کهنه","کمپ خواجه الوان سرک پلخمری مزار شریف"
36.10849884,68.49578535,0901039,"قره سایی پائین","نزدیک رباطک مکتب قره سای"
35.86579764,68.35072241,0902086,"دره تران خواجه پاک","مکتب متوسطه دره تران"
35.39629789,68.60979543,0903105,"قریه چار در","کلینیک چار در"
36.05511391,69.15451111,0904142,"قریه شین دره","مکتب  شیندره"
36.21851065,68.77241501,0905053,"قریه علاوالدین","کلینیک شهرقدیم بغلان"
36.433865478,68.547028082,0905072,"قریه ملا قدیر","عظیم شور"
36.12736064,68.73463626,0905073,"پتن خیل","تعمیر استیشن برق"
35.61800535,69.10871673,0907124,"مرکز خوشدره","مکتب متوسطه خوش دره"
35.86646849,69.23738564,0909197,"چارده","مسجد جامع چهادر"
35.97428164,69.2585123,0909198,"وریچی","مدرسه و مسجد جامع وریچی"
35.38125668,68.21418021,0911163,"مرکز ولسوالی تاله","مکتب ذکور تاله"
36.03196626,69.7283867,0913203,"چار قشلاق","مکتب محمد افضل شهید"
36.2350411,69.54555688,0914226,"یاهور","مسجد  یاهور"
34.7713111,67.415112,1001015,"توپ علی، چارچشمه قرغنتو","مکتب  توپ علی"
34.80134672,67.50294848,1001016,"پیرداد شیبرتو","مکتب پیرداد"
35.205579,67.749139,1003037,"کلانتر ها","دفتر شورای کلانتر ها"
35.26018083,67.99159766,1004060,"دو آب","مدرسه دو آب"
35.33801297,67.87022063,1004061,"انداب","مدرسه انداب"
34.61564408,66.96754855,1005083,"انده","لیسه نسوان انده"
34.21459573,67.1421123,1007122,"جو قول","مسجد جو قول"
34.26609121,66.83304608,1007123,"خرابه قول","مسجد خرابه قول"
34.15583664,67.14372961,1007144,"دیرندر","مسجد دیرندر"
34.11276868,67.25349075,1007145,"غور زلاب","مسجد غورزیلو"
33.5373778,68.39725351,1101005,"نزدیک سرک اول قلعه قدم خان","لیسه نسوان حیدر آباد بالا"
33.57977192,68.40742535,1101026,"قریه نوآباد","مسجد امام زمان"
33.56538425,68.41784814,1101027,"قریه قلعه ریس","لیسه سنائی"
33.4912283,68.3739946,1101048,"قریه زرگر","مسجد زرگر"
33.52228128,68.016201761,1106106,"قریه قباق","مکتب نو قول اصیل"
33.46144592,68.24781458,1104127,"قلعه محمد خان","مسجد قلعه محمد خان"
33.37937043,68.49731715,1107238,"قریه سرفراز پایین","مسجد قریه سرفراز پایین"
33.38216028,67.98779345,1111176,"قریه قلیاقل","مدرسه محمدیه"
34.08735219,67.53666919,1110272,"قریه سرټوپ","مدرسه اهل بیت"
33.19301011,68.79638559,1201011,"دلاو","جومات دلاو"
33.03708753,67.28327576,1114324,"قریه بابه","لیسه عالی بابه"
33.19326195,67.57063702,1114344,"قریه سه پای خدایداد","مکتب قریه سه پای خدایداد"
32.91769464,67.88120633,1115366,"قریه لړم","مسجد قریه لړم"
33.32733908,67.23296906,1116309,"قریه محبت لعلچک","مسجد میراحمد محبت"
33.17558918,68.78734656,1201001,"شرنه","علی بابا  لیسه"
32.96455173,68.55838077,1203043,"میست سګی","جومات میست"
32.96455489,68.55841814,1203044,"میست","میلمستون رمضان"
32.88834036,69.14553711,1211169,"شیخیا ارگون","باباصاحب شیخان ښوونځی"
32.92811727,69.38400933,1215268,"کمال کلی","شازار میلمستون"
33.74881696,69.15372261,1301203,"ټنډان","دټنډانو مكتب"
33.32025299,69.42787573,1305119,"موتی","موتی میر خاجان دکان"
33.36819073,69.47151259,1305206,"غورکی خوله، ګرده څیړی","غورکی خوله مدرسه"
33.82225021,69.6408519,1308136,"موشکه، احمدخیل","د موشکی مسجد"
33.95930766,69.75780682,1307074,"غونزی احمد خیل","د احمد خیلو مکتب"
33.80420755,69.81469719,1310156,"د ولسوالی مرکز، شهرنو","د ولسوالی کلینیک"
33.3118118,69.89894358,1401009,"شمل مرديخيل","د بوده خان جومات شمل مرديخېل"
33.38751826,70.08591661,1401030,"لکڼ ټانګ ټانګ کلى","جومات او د حنيف هجره لکڼ ټانک ټانک کلى"
33.3245318,69.84322803,1402082,"حيدرخيل","د حيدرخيلو محمد صديق روهي ليسه"
33.23579392,69.92525556,1403153,"بورو خيل","د بوري خيلو جومات"
33.54132235,69.73450282,1405072,"دوه منده","د موسى خيل ولسوالۍ مرکزي جومات"
33.56708909,69.87863295,1407065,"زمبر","زمبرجوات"
33.50978454,69.95513079,1407066,"کاريز کلى","جومات کاريز کلى"
33.20123787,69.5138609,1411127,"سپيره کلى","سپيره کلى ښوونځى"
35.22258125,71.52605763,1515106,"ناری","لیسه ناری"
35.22437725,71.52608734,1515107,"ناری","کلینیک"
33.64565925,70.00662017,1413101,"الګاډه","د الګاډې ليسه"
33.60022662,70.08891002,1413102,"داني خيل","د داڼي ښوونځی"
34.92230458,71.11071811,1503013,"قمچی","لیسه قمچی"
34.68527777,70.91888888,1509091,"کلمانی","مسجد قریه"
34.68527777,70.90388888,1509092,"قندهارو کلی","مکتب فیض الله"
36.2217896,66.90695027,2107248,"قریه پل برق","مکتب پل برق"
37.1006422,70.54378042,1701010,"دشت قرغ","لیسه نسوان الجهاد"
37.05531924,70.50454605,1702045,"یرنشه","مکتب یرنشه"
36.98214356,70.52311958,1702046,"برلاس وخیان","مکتب برلاس وخیان"
37.00191069,70.90225996,1706102,"بهارستان","لیسه بهارستان"
37.00580413,70.94128452,1706103,"ملنگ اب","مکتب ملنگ اب"
37.47284747,70.61972725,1708120,"پس پل","لیسه پس پل"
37.43655469,70.66701452,1708121,"لخش","مکتب لخش"
37.05122981,71.21823047,1712118,"ایزرو","مکتب ایزرو"
37.60490991,70.47030525,1714236,"علیا خم","مکتب علیا خم"
36.53368033,70.72841121,1718260,"سناوری","مکتب آب اشنام"
37.55671511,71.46047961,1719213,"بهشار","لیسه رحمت"
37.94298771,70.73586388,1721251,"پای مزار","مکتب پای مزار"
38.23828703,70.64060715,1724282,"سنگ لیچ","مکتب ابتدائیه سنگ لیچ"
37.13775207,74.00513374,1728208,"پامیر","بوزای گمباد"
36.74306058,71.94190902,1728209,"پامیر","لنگر"
36.95035103,69.55080728,1802036,"اچه","مکتب ابتدائیه اچه"
36.44823563,69.61301701,1805080,"خواجه بنا","مسجد خواجه بنا"
36.48411928,69.67668495,1805193,"صیاد","مسجد جامع صیاد"
36.53298,69.87254,1808092,"خفدره","لیسه محمد نبی شهید"
37.22815203,69.73227441,1810106,"یکه توت نوآباد","مکتب حضرت ابی ابن کعب"
37.19416332,69.99485915,1810128,"دشتک علیا","مکتب متوسطه دشتک علیا"
37.19848611,69.48422777,1812171,"باغ بایان","لیسه باغ بایان"
37.20228888,69.47505833,1812172,"غاز تیپه","مسجد غاز تیپه"
37.38320828,69.59364006,1814199,"عرق قشلاق","مکتب ابتدائیه عروق قشلاق"
37.56468846,69.95286145,1816145,"مرکزی انجیز","مسجد مرکزی انجیز"
36.71660525,68.86292863,1901012,"ناحیه دوم","ریاست امور زنان"
36.68827771,68.9462846,1901034,"باغ میری  پایین","لیسه باغ میری"
36.82882598,68.68163358,1901035,"وکیل قره","لیسه وکیل قره"
36.7950676,68.83289682,1901056,"دمشاخ آلچین","مکتب متوسطه دمشاخ"
36.5813091,68.87198228,1903130,"قریه میرشیخ","لیسه میرشیخ"
36.65933467,69.04026659,1904147,"قریه آدم خان","مکتب ابتدائیه سویدن"
36.60591463,69.17391954,1904148,"قریه سویکه","مسجد سویکه"
36.71205862,69.08243442,1904167,"قریه باسوس","مسجد باسوس"
36.79421081,69.0004576,1904168,"قریه پرچه دشت","مکتب پرچه دشت"
37.1818277,68.92431278,1905082,"ناحیه چهارم","مکتب نمبر ۱ امام صاحب"
37.05472222,69.13833333,1906214,"قریه آمر صادق","مسجد آمر صادق"
36.26491496,67.96102906,2001002,"قریه قوچ نهال","مکتب متوسطه قوچ نهال"
36.49822874,68.07866966,2002020,"قریه کلچه","مکتب متوسطه نسوان کلچه"
35.79015757,68.13013075,2003086,"قریه قینر","مکتب متوسطه قینر"
35.93242567,67.38280423,2006049,"قریه بیانان","مکتب متوسطه بیانان"
35.85226842,67.28097554,2007034,"قریه دهن شوراب","مکتب دهن شوراب"
36.71339,67.08383044,2101005,"ناحیه دوم مزار شاروالی","ریاست زراعت"
36.70185055,67.13432229,2101025,"ناحیه ششم مزار شاروالی","مکتب شیخ شهاب"
36.68886432,67.09820431,2101043,"ناحیه پنجم مزار شاروالی","مکتب یُلمرب ازبکیه"
36.68042132,67.11869429,2101044,"سیلو ، ناحیه اول مزار شاروالی","سیلو"
36.69670112,67.03684408,2103054,"دهدادی شیرآباد علیا","کلینیک شیرآباد"
36.36121116,67.29103981,2104286,"قریه خواجه بندی","مکتب خواجه بندی"
36.54303329,67.31012561,2105071,"قریه پسته قلیچ","کلینیک پسته قلیچ"
36.72563219,66.86912057,2106164,"قریه دهرازی","مکتب دهرازی"
36.7519769,66.95046092,2106165,"قریه هیواد","مکتب دیره گی"
36.44355088,66.90731474,2107246,"باغ پهلوان","لیسه باغ پهلوان"
36.49129348,66.91365201,2107247,"قریه استرکوت","مکتب استر کوت"
36.34040607,66.91303417,2107270,"قریه خواجه سکندر","منزل خیر محمد"
32.63231363,66.76633521,2607022,"دايچوپان","مسجد دايچوپان"
36.66360877,66.75367172,2108230,"مرکز ولسوالی","تعمیر جدید ولسوالی"
36.94337414,66.75360773,2109131,"قریه بیدو","مکتب بیدو"
36.68859416,67.68701478,2110081,"سیرت","لیسه پوهاند عبدالروف خلمی"
36.75858224,66.43320189,2111182,"قریه سالار تپه","مکتب سالار تپه"
36.77615944,66.72585345,2111203,"قریه ژنگوره معاون زمان","تعمیر شورای انکشافی"
37.16992764,67.76891358,2113103,"قریه کهنه کلدار","مکتب متوسطه قریه کهنه کلدار"
35.95956159,66.69411846,2115303,"قریه ناقیچی","مکتب ابو القاسم"
35.9662066,66.72184857,2115304,"قریه میرزایی","مکتب خواجه احمد سیوی"
36.21931838,65.91951723,2201005,"قریه القانی کلان","مسجد  جامع القانی"
36.25962356,65.89527174,2201006,"قریه قراغو","لیسه قراغو"
36.09957925,65.82346383,2202059,"قریه بلندغور","مکتب ابتدائیه"
36.05939853,65.63719264,2202060,"قریه هجده بلا","مکتب ابتدائیه"
35.71459969,66.40867715,2205101,"قریه قشلاق کهنه","مدرسه قریه قشلاق کهنه"
35.49975181,66.59740448,2207092,"قریه اوش","مکتب قریه اوش"
34.47078839,65.05962008,2301014,"آهنگران","مکتب آهنگران"
34.43377261,64.98555787,2301015,"امروتک","مسجد امروتک"
33.58383586,64.99374857,2305126,"قریه خشک آبه","خیمه بازار خشک آبه"
34.53247332,64.34968755,2306084,"جلگه مزار","مکتب ابتدائیه جلگه مزار"
34.50016851,66.2817481,2307145,"دهن سقاوه","مسجد جامع لال"
34.58243711,66.27675657,2307165,"قلعه کشک","مکتب قلعه کشک"
33.92025724,63.71729853,2309183,"کاه ده رو","مکتب ابتدائیه کاه ده رو"
33.50877588,63.60020645,2310206,"قریه زال","زیرتنگی قریه زال"
33.78206056,66.72049249,2402021,"چپراسک","مسجد چپراسک"
33.74757647,66.47514092,2402022,"غوجگرد","مسجد غوجگرد"
33.89804205,66.2735459,2404044,"ده عروس خوشک","خیمه بازار قریه  ده عروس"
33.74086728,65.87576616,2405097,"وییر","مکتب وییر"
33.95819231,65.99160789,2405098,"سنگ چلک","مسجد سراب سنگ چلک"
33.43084168,65.69672597,2406141,"سویک","مسجد سویک"
33.16311754,65.58208142,2409056,"کندو","مسجد جامع بوکا"
33.19369039,65.62422721,2409057,"زردگلان","مسجد جامع زرد گلان"
32.65682673,65.92026561,2501008,"قریه خانقه","لیسه سلام بابا"
32.8523388,66.08397627,2503019,"دولت زی کلی","لیسه دولت زايي"
32.80035765,66.28783044,2506049,"سیا غار","د سیا غار ابتدائیه مکتب"
32.47256171,66.84615205,2605018,"قریه باغ","شورواني مسجد"
31.59124294,65.9061707,2703076,"مومند قلعه","مكتب مومند قلعه"
31.63172577,65.69366913,2701014,"اوله ناحيه","محمديه مدرسه"
31.604667683,65.666677616,2701059,"د مينا برج","د مينا برج"
31.68229891,65.64707576,2702115,"كښته چهارغلبه","مسجد كښته چهارغلبه"
31.04105787,66.41057118,2711210,"رباط","د عبدالصمد خان مكتب"
31.62946664,65.35041948,2705170,"د كوچيانو كمپ","د كمپ مكتب"
31.87417353,65.38391929,2707126,"دوخانه","د حاجي محمد ايوب خان سراچه"
31.47263035,65.23960463,2710139,"دواب","د حاجي معصوم خان كور"
32.43690212,65.65795147,2712265,"نوي كاريز","د حاجي نعمت الله كور"
29.72968321,65.71965053,2716198,"د ريګ منطقه","د ولسوالي مركز"
36.68777054,65.74086999,2801013,"ناحیه دوم","لیسه بابا علی"
36.82340381,65.61475267,2802110,"مرکز ولسوالی","لیسه ذکور خواجه دوکوه"
37.04134478,66.007591,2804077,"قورشنغو","مکتب قورشنغو"
36.90312732,66.1974877,2807040,"بتی کوت اربکیه","مسجد آقچه نمای"
36.99376348,66.3141564,2809060,"قریه مردیان","لیسه مردیان"
35.92289977,64.80223396,2901016,"ناحیه اول","لیسه نسوان کوهی خانه میمنه"
35.87509069,65.06589819,2902036,"چقماق","مسجد چقماق"
36.04477305,64.8600449,2903054,"قریه غذاری","لیسه نسوان غذاری"
35.57313659,64.61141655,2904074,"خواجه باغچه","مکتب متوسطه خواجه باغچه"
36.25617174,65.09317458,2906151,"سردابه","مکتب متوسطه ذکور سردابه"
35.79584381,64.38232478,2907093,"خواجه تبجاق","مکتب خواجه تبجاق"
35.75271612,65.29475637,2908124,"قریه ده میران","لیسه ذکور ده میران"
36.91933932,65.09043593,2912190,"قرغان","لیسه محمد کاول شهید"
36.98255483,65.14938806,2914178,"کهنه قلعه","آق مسجد"
31.49057222,64.36082777,3001020,"قلعه بست","د محمد ابراهیم کور"
